[
  {
    "name": "Black Barrel",
    "type": "Brewpub",
    "start": "01/08/2025",
    "delivery": "in person",
    "status": "open",
    "latitude": 48.879532,
    "longitude": 2.365946,
    "address": "978 Paris Rd, Paris, France"
  },
  {
    "name": "Queen's Crown",
    "type": "Brewpub",
    "start": "28/08/2025",
    "delivery": "in person",
    "status": "open",
    "latitude": 40.75401,
    "longitude": -74.019693,
    "address": "690 New York Rd, New York, United States"
  },
  {
    "name": "Queen's Anchor",
    "type": "Brewpub",
    "start": "19/07/2025",
    "delivery": "in person",
    "status": "open",
    "latitude": 35.732249,
    "longitude": 139.739383,
    "address": "862 Tokyo Rd, Tokyo, Japan"
  },
  {
    "name": "Old Bridge",
    "type": "Tapas Bar",
    "start": "23/07/2025",
    "delivery": "in person",
    "status": "open",
    "latitude": 43.693514,
    "longitude": -79.409015,
    "address": "871 Toronto Rd, Toronto, Canada"
  },
  {
    "name": "Silver Tavern",
    "type": "Lounge",
    "start": "14/09/2025",
    "delivery": "in person",
    "status": "open",
    "latitude": 53.319102,
    "longitude": -6.279008,
    "address": "714 Dublin Rd, Dublin, Ireland"
  },
  {
    "name": "The Crown",
    "type": "Tapas Bar",
    "start": "10/09/2025",
    "delivery": "in person",
    "status": "open",
    "latitude": 51.461461,
    "longitude": -0.153614,
    "address": "289 London Rd, London, United Kingdom"
  },
  {
    "name": "White Crown",
    "type": "Sports Bar",
    "start": "17/09/2025",
    "delivery": "in person",
    "status": "open",
    "latitude": 52.5049,
    "longitude": 13.368697,
    "address": "790 Berlin Rd, Berlin, Germany"
  },
  {
    "name": "Red Lion",
    "type": "Sports Bar",
    "start": "02/09/2025",
    "delivery": "in person",
    "status": "open",
    "latitude": 35.732501,
    "longitude": 139.73705,
    "address": "552 Tokyo Rd, Tokyo, Japan"
  },
  {
    "name": "Red Crown",
    "type": "Traditional Pub",
    "start": "27/07/2025",
    "delivery": "in person",
    "status": "open",
    "latitude": 53.393801,
    "longitude": -6.302441,
    "address": "676 Dublin Rd, Dublin, Ireland"
  },
  {
    "name": "Red Anchor",
    "type": "Rooftop Bar",
    "start": "15/08/2025",
    "delivery": "in person",
    "status": "open",
    "latitude": 51.479441,
    "longitude": -0.119635,
    "address": "246 London Rd, London, United Kingdom"
  },
  {
    "name": "Queen's Fox",
    "type": "Wine Bar",
    "start": "30/08/2025",
    "delivery": "in person",
    "status": "open",
    "latitude": 43.66776,
    "longitude": -79.344633,
    "address": "944 Toronto Rd, Toronto, Canada"
  },
  {
    "name": "The Crown",
    "type": "Wine Bar",
    "start": "24/07/2025",
    "delivery": "in person",
    "status": "open",
    "latitude": 48.899701,
    "longitude": 2.355688,
    "address": "615 Paris Rd, Paris, France"
  },
  {
    "name": "Old Anchor",
    "type": "Tapas Bar",
    "start": "25/08/2025",
    "delivery": "in person",
    "status": "open",
    "latitude": -33.872711,
    "longitude": 151.246687,
    "address": "364 Sydney Rd, Sydney, Australia"
  },
  {
    "name": "Golden Anchor",
    "type": "Cocktail Bar",
    "start": "21/08/2025",
    "delivery": "in person",
    "status": "open",
    "latitude": 43.609513,
    "longitude": -79.355438,
    "address": "530 Toronto Rd, Toronto, Canada"
  },
  {
    "name": "King's Fox",
    "type": "Beer Hall",
    "start": "31/07/2025",
    "delivery": "in person",
    "status": "open",
    "latitude": 43.670551,
    "longitude": -79.351965,
    "address": "385 Toronto Rd, Toronto, Canada"
  },
  {
    "name": "New Bridge",
    "type": "Rooftop Bar",
    "start": "18/08/2025",
    "delivery": "in person",
    "status": "open",
    "latitude": 35.645271,
    "longitude": 139.669412,
    "address": "543 Tokyo Rd, Tokyo, Japan"
  },
  {
    "name": "The Swan",
    "type": "Cocktail Bar",
    "start": "07/08/2025",
    "delivery": "in person",
    "status": "open",
    "latitude": 40.450589,
    "longitude": -3.702381,
    "address": "15 Madrid Rd, Madrid, Spain"
  },
  {
    "name": "The Swan",
    "type": "Cocktail Bar",
    "start": "03/09/2025",
    "delivery": "in person",
    "status": "open",
    "latitude": -33.888218,
    "longitude": 151.218387,
    "address": "17 Sydney Rd, Sydney, Australia"
  },
  {
    "name": "Red Swan",
    "type": "Tapas Bar",
    "start": "13/08/2025",
    "delivery": "in person",
    "status": "open",
    "latitude": -33.845104,
    "longitude": 151.200253,
    "address": "18 Sydney Rd, Sydney, Australia"
  },
  {
    "name": "New Horse",
    "type": "Traditional Pub",
    "start": "03/09/2025",
    "delivery": "in person",
    "status": "open",
    "latitude": 43.668399,
    "longitude": -79.432864,
    "address": "778 Toronto Rd, Toronto, Canada"
  },
  {
    "name": "Red Barrel",
    "type": "Sports Bar",
    "start": "27/08/2025",
    "delivery": "in person",
    "status": "open",
    "latitude": 53.321924,
    "longitude": -6.276948,
    "address": "787 Dublin Rd, Dublin, Ireland"
  },
  {
    "name": "New Tavern",
    "type": "Lounge",
    "start": "21/07/2025",
    "delivery": "in person",
    "status": "open",
    "latitude": 51.482943,
    "longitude": -0.1172,
    "address": "458 London Rd, London, United Kingdom"
  },
  {
    "name": "Silver Tavern",
    "type": "Beer Hall",
    "start": "08/09/2025",
    "delivery": "in person",
    "status": "open",
    "latitude": 51.550252,
    "longitude": -0.110034,
    "address": "282 London Rd, London, United Kingdom"
  },
  {
    "name": "Red Swan",
    "type": "Cocktail Bar",
    "start": "07/08/2025",
    "delivery": "in person",
    "status": "open",
    "latitude": 52.558175,
    "longitude": 13.443206,
    "address": "589 Berlin Rd, Berlin, Germany"
  },
  {
    "name": "The Bridge",
    "type": "Cocktail Bar",
    "start": "23/07/2025",
    "delivery": "in person",
    "status": "open",
    "latitude": 52.470558,
    "longitude": 13.435799,
    "address": "693 Berlin Rd, Berlin, Germany"
  },
  {
    "name": "Silver Crown",
    "type": "Traditional Pub",
    "start": "05/08/2025",
    "delivery": "in person",
    "status": "open",
    "latitude": 40.371039,
    "longitude": -3.679652,
    "address": "229 Madrid Rd, Madrid, Spain"
  },
  {
    "name": "New Barrel",
    "type": "Rooftop Bar",
    "start": "10/09/2025",
    "delivery": "in person",
    "status": "open",
    "latitude": 52.479967,
    "longitude": 13.444827,
    "address": "806 Berlin Rd, Berlin, Germany"
  },
  {
    "name": "Golden Anchor",
    "type": "Cocktail Bar",
    "start": "12/08/2025",
    "delivery": "in person",
    "status": "open",
    "latitude": 35.702824,
    "longitude": 139.717721,
    "address": "70 Tokyo Rd, Tokyo, Japan"
  },
  {
    "name": "Red Fox",
    "type": "Beer Hall",
    "start": "12/09/2025",
    "delivery": "in person",
    "status": "open",
    "latitude": -33.910705,
    "longitude": 151.179861,
    "address": "224 Sydney Rd, Sydney, Australia"
  },
  {
    "name": "The Crown",
    "type": "Beach Bar",
    "start": "01/08/2025",
    "delivery": "in person",
    "status": "open",
    "latitude": -33.897119,
    "longitude": 18.421626,
    "address": "289 Cape Town Rd, Cape Town, South Africa"
  },
  {
    "name": "Silver Fox",
    "type": "Brewpub",
    "start": "05/08/2025",
    "delivery": "in person",
    "status": "open",
    "latitude": 43.668257,
    "longitude": -79.378181,
    "address": "608 Toronto Rd, Toronto, Canada"
  },
  {
    "name": "King's Barrel",
    "type": "Beach Bar",
    "start": "15/08/2025",
    "delivery": "in person",
    "status": "open",
    "latitude": -33.823323,
    "longitude": 151.168249,
    "address": "709 Sydney Rd, Sydney, Australia"
  },
  {
    "name": "Red Crown",
    "type": "Beach Bar",
    "start": "25/08/2025",
    "delivery": "in person",
    "status": "open",
    "latitude": -33.898198,
    "longitude": 18.460041,
    "address": "818 Cape Town Rd, Cape Town, South Africa"
  },
  {
    "name": "Black Horse",
    "type": "Traditional Pub",
    "start": "11/09/2025",
    "delivery": "in person",
    "status": "open",
    "latitude": 40.450692,
    "longitude": -3.751944,
    "address": "404 Madrid Rd, Madrid, Spain"
  },
  {
    "name": "The Horse",
    "type": "Beer Hall",
    "start": "31/08/2025",
    "delivery": "in person",
    "status": "open",
    "latitude": -33.930411,
    "longitude": 18.40786,
    "address": "506 Cape Town Rd, Cape Town, South Africa"
  },
  {
    "name": "The Anchor",
    "type": "Lounge",
    "start": "01/08/2025",
    "delivery": "in person",
    "status": "open",
    "latitude": -33.859743,
    "longitude": 151.198915,
    "address": "131 Sydney Rd, Sydney, Australia"
  },
  {
    "name": "Golden Fox",
    "type": "Beer Hall",
    "start": "31/07/2025",
    "delivery": "in person",
    "status": "open",
    "latitude": 51.493138,
    "longitude": -0.132897,
    "address": "221 London Rd, London, United Kingdom"
  },
  {
    "name": "Queen's Horse",
    "type": "Wine Bar",
    "start": "01/09/2025",
    "delivery": "in person",
    "status": "open",
    "latitude": 40.42271,
    "longitude": -3.673805,
    "address": "341 Madrid Rd, Madrid, Spain"
  },
  {
    "name": "New Horse",
    "type": "Beach Bar",
    "start": "15/09/2025",
    "delivery": "in person",
    "status": "open",
    "latitude": 52.482196,
    "longitude": 13.452205,
    "address": "273 Berlin Rd, Berlin, Germany"
  },
  {
    "name": "Black Crown",
    "type": "Sports Bar",
    "start": "20/08/2025",
    "delivery": "in person",
    "status": "open",
    "latitude": 51.483483,
    "longitude": -0.081529,
    "address": "892 London Rd, London, United Kingdom"
  },
  {
    "name": "Queen's Swan",
    "type": "Sports Bar",
    "start": "20/08/2025",
    "delivery": "in person",
    "status": "open",
    "latitude": 35.671997,
    "longitude": 139.664455,
    "address": "617 Tokyo Rd, Tokyo, Japan"
  },
  {
    "name": "Old Bridge",
    "type": "Rooftop Bar",
    "start": "02/08/2025",
    "delivery": "in person",
    "status": "open",
    "latitude": 35.736472,
    "longitude": 139.655039,
    "address": "786 Tokyo Rd, Tokyo, Japan"
  },
  {
    "name": "Red Anchor",
    "type": "Traditional Pub",
    "start": "07/09/2025",
    "delivery": "in person",
    "status": "open",
    "latitude": -33.96344,
    "longitude": 18.443789,
    "address": "934 Cape Town Rd, Cape Town, South Africa"
  },
  {
    "name": "Black Bridge",
    "type": "Cocktail Bar",
    "start": "22/08/2025",
    "delivery": "in person",
    "status": "open",
    "latitude": 52.475213,
    "longitude": 13.396262,
    "address": "720 Berlin Rd, Berlin, Germany"
  },
  {
    "name": "White Swan",
    "type": "Brewpub",
    "start": "12/08/2025",
    "delivery": "in person",
    "status": "open",
    "latitude": 43.611465,
    "longitude": -79.36866,
    "address": "354 Toronto Rd, Toronto, Canada"
  },
  {
    "name": "Black Swan",
    "type": "Wine Bar",
    "start": "23/08/2025",
    "delivery": "in person",
    "status": "open",
    "latitude": 40.440287,
    "longitude": -3.660063,
    "address": "341 Madrid Rd, Madrid, Spain"
  },
  {
    "name": "White Swan",
    "type": "Beach Bar",
    "start": "18/08/2025",
    "delivery": "in person",
    "status": "open",
    "latitude": 40.434786,
    "longitude": -3.658118,
    "address": "127 Madrid Rd, Madrid, Spain"
  },
  {
    "name": "Golden Crown",
    "type": "Traditional Pub",
    "start": "29/07/2025",
    "delivery": "in person",
    "status": "open",
    "latitude": 53.369204,
    "longitude": -6.281071,
    "address": "857 Dublin Rd, Dublin, Ireland"
  },
  {
    "name": "The Tavern",
    "type": "Brewpub",
    "start": "14/08/2025",
    "delivery": "in person",
    "status": "open",
    "latitude": 43.655689,
    "longitude": -79.385498,
    "address": "669 Toronto Rd, Toronto, Canada"
  },
  {
    "name": "Old Anchor",
    "type": "Beer Hall",
    "start": "19/08/2025",
    "delivery": "in person",
    "status": "open",
    "latitude": 35.732484,
    "longitude": 139.708147,
    "address": "118 Tokyo Rd, Tokyo, Japan"
  },
  {
    "name": "Black Barrel",
    "type": "Tapas Bar",
    "start": "16/08/2025",
    "delivery": "in person",
    "status": "open",
    "latitude": 43.664956,
    "longitude": -79.429208,
    "address": "314 Toronto Rd, Toronto, Canada"
  },
  {
    "name": "White Swan",
    "type": "Traditional Pub",
    "start": "13/09/2025",
    "delivery": "in person",
    "status": "open",
    "latitude": -33.945038,
    "longitude": 18.397153,
    "address": "316 Cape Town Rd, Cape Town, South Africa"
  },
  {
    "name": "Black Barrel",
    "type": "Beer Hall",
    "start": "14/08/2025",
    "delivery": "in person",
    "status": "open",
    "latitude": 35.734078,
    "longitude": 139.642763,
    "address": "626 Tokyo Rd, Tokyo, Japan"
  },
  {
    "name": "Red Barrel",
    "type": "Brewpub",
    "start": "15/08/2025",
    "delivery": "in person",
    "status": "open",
    "latitude": 48.842504,
    "longitude": 2.399106,
    "address": "337 Paris Rd, Paris, France"
  },
  {
    "name": "Silver Horse",
    "type": "Rooftop Bar",
    "start": "20/08/2025",
    "delivery": "in person",
    "status": "open",
    "latitude": 52.527909,
    "longitude": 13.365959,
    "address": "635 Berlin Rd, Berlin, Germany"
  },
  {
    "name": "White Swan",
    "type": "Lounge",
    "start": "12/08/2025",
    "delivery": "in person",
    "status": "open",
    "latitude": 43.702526,
    "longitude": -79.416944,
    "address": "233 Toronto Rd, Toronto, Canada"
  },
  {
    "name": "Queen's Swan",
    "type": "Sports Bar",
    "start": "01/08/2025",
    "delivery": "in person",
    "status": "open",
    "latitude": 40.380699,
    "longitude": -3.716683,
    "address": "484 Madrid Rd, Madrid, Spain"
  },
  {
    "name": "Golden Tavern",
    "type": "Cocktail Bar",
    "start": "03/09/2025",
    "delivery": "in person",
    "status": "open",
    "latitude": 40.692594,
    "longitude": -73.969739,
    "address": "472 New York Rd, New York, United States"
  },
  {
    "name": "Red Fox",
    "type": "Wine Bar",
    "start": "06/08/2025",
    "delivery": "in person",
    "status": "open",
    "latitude": -33.884014,
    "longitude": 151.223358,
    "address": "899 Sydney Rd, Sydney, Australia"
  },
  {
    "name": "White Swan",
    "type": "Sports Bar",
    "start": "06/08/2025",
    "delivery": "in person",
    "status": "open",
    "latitude": 48.86585,
    "longitude": 2.338642,
    "address": "918 Paris Rd, Paris, France"
  },
  {
    "name": "Red Tavern",
    "type": "Wine Bar",
    "start": "20/07/2025",
    "delivery": "in person",
    "status": "open",
    "latitude": 40.718925,
    "longitude": -73.961681,
    "address": "166 New York Rd, New York, United States"
  },
  {
    "name": "Silver Horse",
    "type": "Traditional Pub",
    "start": "28/07/2025",
    "delivery": "in person",
    "status": "open",
    "latitude": -33.885612,
    "longitude": 18.403311,
    "address": "637 Cape Town Rd, Cape Town, South Africa"
  },
  {
    "name": "King's Bridge",
    "type": "Sports Bar",
    "start": "26/07/2025",
    "delivery": "in person",
    "status": "open",
    "latitude": 53.325695,
    "longitude": -6.234976,
    "address": "628 Dublin Rd, Dublin, Ireland"
  },
  {
    "name": "Golden Swan",
    "type": "Rooftop Bar",
    "start": "24/08/2025",
    "delivery": "in person",
    "status": "open",
    "latitude": 51.463799,
    "longitude": -0.109747,
    "address": "26 London Rd, London, United Kingdom"
  },
  {
    "name": "The Swan",
    "type": "Lounge",
    "start": "02/08/2025",
    "delivery": "in person",
    "status": "open",
    "latitude": 40.760906,
    "longitude": -73.960271,
    "address": "377 New York Rd, New York, United States"
  },
  {
    "name": "Black Bridge",
    "type": "Sports Bar",
    "start": "31/07/2025",
    "delivery": "in person",
    "status": "open",
    "latitude": -33.972182,
    "longitude": 18.459227,
    "address": "538 Cape Town Rd, Cape Town, South Africa"
  },
  {
    "name": "Queen's Lion",
    "type": "Brewpub",
    "start": "21/08/2025",
    "delivery": "in person",
    "status": "open",
    "latitude": 51.52905,
    "longitude": -0.176341,
    "address": "368 London Rd, London, United Kingdom"
  },
  {
    "name": "Golden Anchor",
    "type": "Brewpub",
    "start": "28/07/2025",
    "delivery": "in person",
    "status": "open",
    "latitude": 51.527985,
    "longitude": -0.163592,
    "address": "321 London Rd, London, United Kingdom"
  },
  {
    "name": "Red Horse",
    "type": "Traditional Pub",
    "start": "19/07/2025",
    "delivery": "in person",
    "status": "open",
    "latitude": 53.31091,
    "longitude": -6.21552,
    "address": "782 Dublin Rd, Dublin, Ireland"
  },
  {
    "name": "Golden Swan",
    "type": "Rooftop Bar",
    "start": "17/09/2025",
    "delivery": "in person",
    "status": "open",
    "latitude": 35.642698,
    "longitude": 139.732934,
    "address": "290 Tokyo Rd, Tokyo, Japan"
  },
  {
    "name": "Black Bridge",
    "type": "Brewpub",
    "start": "16/08/2025",
    "delivery": "in person",
    "status": "open",
    "latitude": 43.679611,
    "longitude": -79.385317,
    "address": "48 Toronto Rd, Toronto, Canada"
  },
  {
    "name": "New Hound",
    "type": "Traditional Pub",
    "start": "11/09/2025",
    "delivery": "in person",
    "status": "open",
    "latitude": 48.855519,
    "longitude": 2.343277,
    "address": "274 Paris Rd, Paris, France"
  },
  {
    "name": "White Lion",
    "type": "Beer Hall",
    "start": "10/08/2025",
    "delivery": "in person",
    "status": "open",
    "latitude": -33.886863,
    "longitude": 18.46283,
    "address": "862 Cape Town Rd, Cape Town, South Africa"
  },
  {
    "name": "Red Hound",
    "type": "Wine Bar",
    "start": "11/08/2025",
    "delivery": "in person",
    "status": "open",
    "latitude": 48.844447,
    "longitude": 2.365485,
    "address": "678 Paris Rd, Paris, France"
  },
  {
    "name": "The Crown",
    "type": "Brewpub",
    "start": "28/08/2025",
    "delivery": "in person",
    "status": "open",
    "latitude": 53.392684,
    "longitude": -6.278216,
    "address": "942 Dublin Rd, Dublin, Ireland"
  },
  {
    "name": "Queen's Bridge",
    "type": "Beach Bar",
    "start": "21/08/2025",
    "delivery": "in person",
    "status": "open",
    "latitude": 48.877046,
    "longitude": 2.370123,
    "address": "750 Paris Rd, Paris, France"
  },
  {
    "name": "The Horse",
    "type": "Lounge",
    "start": "08/09/2025",
    "delivery": "in person",
    "status": "open",
    "latitude": 43.632156,
    "longitude": -79.385913,
    "address": "779 Toronto Rd, Toronto, Canada"
  },
  {
    "name": "New Fox",
    "type": "Lounge",
    "start": "12/08/2025",
    "delivery": "in person",
    "status": "open",
    "latitude": 40.758928,
    "longitude": -74.006538,
    "address": "41 New York Rd, New York, United States"
  },
  {
    "name": "New Bridge",
    "type": "Brewpub",
    "start": "13/08/2025",
    "delivery": "in person",
    "status": "open",
    "latitude": -33.90307,
    "longitude": 151.253789,
    "address": "686 Sydney Rd, Sydney, Australia"
  },
  {
    "name": "Golden Crown",
    "type": "Wine Bar",
    "start": "17/08/2025",
    "delivery": "in person",
    "status": "open",
    "latitude": -33.914904,
    "longitude": 151.175925,
    "address": "931 Sydney Rd, Sydney, Australia"
  },
  {
    "name": "Black Crown",
    "type": "Traditional Pub",
    "start": "20/07/2025",
    "delivery": "in person",
    "status": "open",
    "latitude": -33.888803,
    "longitude": 18.462742,
    "address": "632 Cape Town Rd, Cape Town, South Africa"
  },
  {
    "name": "New Anchor",
    "type": "Beach Bar",
    "start": "20/08/2025",
    "delivery": "in person",
    "status": "open",
    "latitude": 35.654657,
    "longitude": 139.652384,
    "address": "400 Tokyo Rd, Tokyo, Japan"
  },
  {
    "name": "Queen's Anchor",
    "type": "Beach Bar",
    "start": "20/08/2025",
    "delivery": "in person",
    "status": "open",
    "latitude": 48.90151,
    "longitude": 2.349588,
    "address": "437 Paris Rd, Paris, France"
  },
  {
    "name": "Golden Crown",
    "type": "Lounge",
    "start": "16/09/2025",
    "delivery": "in person",
    "status": "open",
    "latitude": 40.463385,
    "longitude": -3.717101,
    "address": "988 Madrid Rd, Madrid, Spain"
  },
  {
    "name": "Queen's Fox",
    "type": "Tapas Bar",
    "start": "07/08/2025",
    "delivery": "in person",
    "status": "open",
    "latitude": 48.835266,
    "longitude": 2.314287,
    "address": "584 Paris Rd, Paris, France"
  },
  {
    "name": "Black Bridge",
    "type": "Lounge",
    "start": "30/07/2025",
    "delivery": "in person",
    "status": "open",
    "latitude": 35.729329,
    "longitude": 139.64995,
    "address": "907 Tokyo Rd, Tokyo, Japan"
  },
  {
    "name": "New Barrel",
    "type": "Sports Bar",
    "start": "21/07/2025",
    "delivery": "in person",
    "status": "open",
    "latitude": 51.470182,
    "longitude": -0.099421,
    "address": "218 London Rd, London, United Kingdom"
  },
  {
    "name": "The Fox",
    "type": "Cocktail Bar",
    "start": "21/07/2025",
    "delivery": "in person",
    "status": "open",
    "latitude": 40.381751,
    "longitude": -3.696452,
    "address": "273 Madrid Rd, Madrid, Spain"
  },
  {
    "name": "New Hound",
    "type": "Sports Bar",
    "start": "26/07/2025",
    "delivery": "in person",
    "status": "open",
    "latitude": 40.743869,
    "longitude": -73.979925,
    "address": "80 New York Rd, New York, United States"
  },
  {
    "name": "New Lion",
    "type": "Lounge",
    "start": "10/09/2025",
    "delivery": "in person",
    "status": "open",
    "latitude": 48.858001,
    "longitude": 2.312841,
    "address": "287 Paris Rd, Paris, France"
  },
  {
    "name": "Silver Swan",
    "type": "Cocktail Bar",
    "start": "06/08/2025",
    "delivery": "in person",
    "status": "open",
    "latitude": 43.673098,
    "longitude": -79.41885,
    "address": "601 Toronto Rd, Toronto, Canada"
  },
  {
    "name": "King's Hound",
    "type": "Rooftop Bar",
    "start": "27/08/2025",
    "delivery": "in person",
    "status": "open",
    "latitude": 51.517109,
    "longitude": -0.113844,
    "address": "235 London Rd, London, United Kingdom"
  },
  {
    "name": "The Hound",
    "type": "Beach Bar",
    "start": "05/08/2025",
    "delivery": "in person",
    "status": "open",
    "latitude": 35.727667,
    "longitude": 139.669071,
    "address": "371 Tokyo Rd, Tokyo, Japan"
  },
  {
    "name": "Old Bridge",
    "type": "Cocktail Bar",
    "start": "29/07/2025",
    "delivery": "in person",
    "status": "open",
    "latitude": -33.891587,
    "longitude": 18.397812,
    "address": "319 Cape Town Rd, Cape Town, South Africa"
  },
  {
    "name": "Silver Hound",
    "type": "Beach Bar",
    "start": "26/08/2025",
    "delivery": "in person",
    "status": "open",
    "latitude": -33.900221,
    "longitude": 151.164495,
    "address": "671 Sydney Rd, Sydney, Australia"
  },
  {
    "name": "Silver Anchor",
    "type": "Rooftop Bar",
    "start": "03/09/2025",
    "delivery": "in person",
    "status": "open",
    "latitude": 51.461758,
    "longitude": -0.118183,
    "address": "772 London Rd, London, United Kingdom"
  },
  {
    "name": "Red Horse",
    "type": "Brewpub",
    "start": "20/08/2025",
    "delivery": "in person",
    "status": "open",
    "latitude": 52.531867,
    "longitude": 13.396036,
    "address": "982 Berlin Rd, Berlin, Germany"
  },
  {
    "name": "King's Hound",
    "type": "Brewpub",
    "start": "31/07/2025",
    "delivery": "in person",
    "status": "open",
    "latitude": 40.691772,
    "longitude": -73.96817,
    "address": "17 New York Rd, New York, United States"
  },
  {
    "name": "Black Crown",
    "type": "Lounge",
    "start": "31/08/2025",
    "delivery": "in person",
    "status": "open",
    "latitude": 40.686938,
    "longitude": -74.037783,
    "address": "309 New York Rd, New York, United States"
  },
  {
    "name": "Silver Anchor",
    "type": "Lounge",
    "start": "29/08/2025",
    "delivery": "in person",
    "status": "open",
    "latitude": -33.896566,
    "longitude": 18.423432,
    "address": "56 Cape Town Rd, Cape Town, South Africa"
  },
  {
    "name": "The Bridge",
    "type": "Beer Hall",
    "start": "20/08/2025",
    "delivery": "in person",
    "status": "open",
    "latitude": -33.914886,
    "longitude": 18.37848,
    "address": "836 Cape Town Rd, Cape Town, South Africa"
  },
  {
    "name": "Queen's Barrel",
    "type": "Traditional Pub",
    "start": "16/08/2025",
    "delivery": "in person",
    "status": "open",
    "latitude": -33.908918,
    "longitude": 151.160106,
    "address": "663 Sydney Rd, Sydney, Australia"
  },
  {
    "name": "Red Anchor",
    "type": "Sports Bar",
    "start": "01/09/2025",
    "delivery": "in person",
    "status": "open",
    "latitude": -33.908438,
    "longitude": 18.395072,
    "address": "720 Cape Town Rd, Cape Town, South Africa"
  },
  {
    "name": "Red Barrel",
    "type": "Sports Bar",
    "start": "20/08/2025",
    "delivery": "in person",
    "status": "open",
    "latitude": 35.683089,
    "longitude": 139.718433,
    "address": "352 Tokyo Rd, Tokyo, Japan"
  },
  {
    "name": "Old Tavern",
    "type": "Rooftop Bar",
    "start": "30/08/2025",
    "delivery": "in person",
    "status": "open",
    "latitude": 51.535109,
    "longitude": -0.122795,
    "address": "897 London Rd, London, United Kingdom"
  },
  {
    "name": "White Bridge",
    "type": "Sports Bar",
    "start": "01/08/2025",
    "delivery": "in person",
    "status": "open",
    "latitude": 51.476329,
    "longitude": -0.088993,
    "address": "939 London Rd, London, United Kingdom"
  },
  {
    "name": "Golden Crown",
    "type": "Cocktail Bar",
    "start": "02/09/2025",
    "delivery": "in person",
    "status": "open",
    "latitude": 40.440565,
    "longitude": -3.657894,
    "address": "823 Madrid Rd, Madrid, Spain"
  },
  {
    "name": "Golden Crown",
    "type": "Lounge",
    "start": "27/08/2025",
    "delivery": "in person",
    "status": "open",
    "latitude": -33.912716,
    "longitude": 18.467475,
    "address": "544 Cape Town Rd, Cape Town, South Africa"
  },
  {
    "name": "White Bridge",
    "type": "Cocktail Bar",
    "start": "15/08/2025",
    "delivery": "in person",
    "status": "open",
    "latitude": 35.676861,
    "longitude": 139.704141,
    "address": "952 Tokyo Rd, Tokyo, Japan"
  },
  {
    "name": "The Crown",
    "type": "Lounge",
    "start": "07/09/2025",
    "delivery": "in person",
    "status": "open",
    "latitude": 48.877722,
    "longitude": 2.339349,
    "address": "241 Paris Rd, Paris, France"
  },
  {
    "name": "Silver Anchor",
    "type": "Cocktail Bar",
    "start": "25/07/2025",
    "delivery": "in person",
    "status": "open",
    "latitude": 52.54651,
    "longitude": 13.409258,
    "address": "65 Berlin Rd, Berlin, Germany"
  },
  {
    "name": "The Anchor",
    "type": "Lounge",
    "start": "13/08/2025",
    "delivery": "in person",
    "status": "open",
    "latitude": 40.72922,
    "longitude": -74.009798,
    "address": "631 New York Rd, New York, United States"
  },
  {
    "name": "Golden Horse",
    "type": "Wine Bar",
    "start": "04/08/2025",
    "delivery": "in person",
    "status": "open",
    "latitude": 48.820014,
    "longitude": 2.347832,
    "address": "515 Paris Rd, Paris, France"
  },
  {
    "name": "The Barrel",
    "type": "Brewpub",
    "start": "02/09/2025",
    "delivery": "in person",
    "status": "open",
    "latitude": -33.938355,
    "longitude": 18.413663,
    "address": "528 Cape Town Rd, Cape Town, South Africa"
  },
  {
    "name": "Golden Crown",
    "type": "Beach Bar",
    "start": "04/09/2025",
    "delivery": "in person",
    "status": "open",
    "latitude": 52.515807,
    "longitude": 13.371518,
    "address": "807 Berlin Rd, Berlin, Germany"
  },
  {
    "name": "Golden Barrel",
    "type": "Brewpub",
    "start": "30/08/2025",
    "delivery": "in person",
    "status": "open",
    "latitude": 40.710973,
    "longitude": -74.01289,
    "address": "626 New York Rd, New York, United States"
  },
  {
    "name": "The Horse",
    "type": "Traditional Pub",
    "start": "20/08/2025",
    "delivery": "in person",
    "status": "open",
    "latitude": 52.554294,
    "longitude": 13.395019,
    "address": "734 Berlin Rd, Berlin, Germany"
  },
  {
    "name": "The Tavern",
    "type": "Cocktail Bar",
    "start": "21/08/2025",
    "delivery": "in person",
    "status": "open",
    "latitude": 40.672438,
    "longitude": -74.005198,
    "address": "153 New York Rd, New York, United States"
  },
  {
    "name": "Silver Fox",
    "type": "Beach Bar",
    "start": "23/07/2025",
    "delivery": "in person",
    "status": "open",
    "latitude": 53.341062,
    "longitude": -6.248794,
    "address": "428 Dublin Rd, Dublin, Ireland"
  },
  {
    "name": "The Lion",
    "type": "Wine Bar",
    "start": "22/07/2025",
    "delivery": "in person",
    "status": "open",
    "latitude": 40.45625,
    "longitude": -3.748324,
    "address": "357 Madrid Rd, Madrid, Spain"
  },
  {
    "name": "The Bridge",
    "type": "Wine Bar",
    "start": "14/09/2025",
    "delivery": "in person",
    "status": "open",
    "latitude": 51.545948,
    "longitude": -0.125008,
    "address": "13 London Rd, London, United Kingdom"
  },
  {
    "name": "Red Barrel",
    "type": "Beer Hall",
    "start": "31/08/2025",
    "delivery": "in person",
    "status": "open",
    "latitude": 40.685588,
    "longitude": -74.007492,
    "address": "761 New York Rd, New York, United States"
  },
  {
    "name": "Old Swan",
    "type": "Sports Bar",
    "start": "01/09/2025",
    "delivery": "in person",
    "status": "open",
    "latitude": 43.682829,
    "longitude": -79.33486,
    "address": "179 Toronto Rd, Toronto, Canada"
  },
  {
    "name": "Silver Fox",
    "type": "Sports Bar",
    "start": "31/08/2025",
    "delivery": "in person",
    "status": "open",
    "latitude": -33.854793,
    "longitude": 151.214296,
    "address": "878 Sydney Rd, Sydney, Australia"
  },
  {
    "name": "Queen's Horse",
    "type": "Cocktail Bar",
    "start": "08/09/2025",
    "delivery": "in person",
    "status": "open",
    "latitude": 40.684111,
    "longitude": -74.014061,
    "address": "713 New York Rd, New York, United States"
  },
  {
    "name": "King's Bridge",
    "type": "Cocktail Bar",
    "start": "21/08/2025",
    "delivery": "in person",
    "status": "open",
    "latitude": 40.735145,
    "longitude": -74.012245,
    "address": "914 New York Rd, New York, United States"
  },
  {
    "name": "New Swan",
    "type": "Traditional Pub",
    "start": "06/09/2025",
    "delivery": "in person",
    "status": "open",
    "latitude": 40.448364,
    "longitude": -3.684065,
    "address": "974 Madrid Rd, Madrid, Spain"
  },
  {
    "name": "King's Horse",
    "type": "Beer Hall",
    "start": "19/07/2025",
    "delivery": "in person",
    "status": "open",
    "latitude": 43.677378,
    "longitude": -79.357171,
    "address": "880 Toronto Rd, Toronto, Canada"
  },
  {
    "name": "Queen's Swan",
    "type": "Lounge",
    "start": "09/08/2025",
    "delivery": "in person",
    "status": "open",
    "latitude": 52.5672,
    "longitude": 13.377291,
    "address": "948 Berlin Rd, Berlin, Germany"
  },
  {
    "name": "Black Tavern",
    "type": "Beer Hall",
    "start": "27/07/2025",
    "delivery": "in person",
    "status": "open",
    "latitude": 40.667874,
    "longitude": -74.042817,
    "address": "887 New York Rd, New York, United States"
  },
  {
    "name": "King's Fox",
    "type": "Sports Bar",
    "start": "22/08/2025",
    "delivery": "in person",
    "status": "open",
    "latitude": 48.850637,
    "longitude": 2.376496,
    "address": "218 Paris Rd, Paris, France"
  },
  {
    "name": "Black Swan",
    "type": "Tapas Bar",
    "start": "10/08/2025",
    "delivery": "in person",
    "status": "open",
    "latitude": -33.880365,
    "longitude": 151.188928,
    "address": "31 Sydney Rd, Sydney, Australia"
  },
  {
    "name": "The Barrel",
    "type": "Beach Bar",
    "start": "02/08/2025",
    "delivery": "in person",
    "status": "open",
    "latitude": 48.836434,
    "longitude": 2.371224,
    "address": "196 Paris Rd, Paris, France"
  },
  {
    "name": "Golden Tavern",
    "type": "Sports Bar",
    "start": "26/08/2025",
    "delivery": "in person",
    "status": "open",
    "latitude": 52.568226,
    "longitude": 13.384736,
    "address": "533 Berlin Rd, Berlin, Germany"
  },
  {
    "name": "The Hound",
    "type": "Rooftop Bar",
    "start": "03/09/2025",
    "delivery": "in person",
    "status": "open",
    "latitude": -33.837266,
    "longitude": 151.242493,
    "address": "233 Sydney Rd, Sydney, Australia"
  },
  {
    "name": "King's Barrel",
    "type": "Brewpub",
    "start": "23/07/2025",
    "delivery": "in person",
    "status": "open",
    "latitude": 52.547712,
    "longitude": 13.428742,
    "address": "451 Berlin Rd, Berlin, Germany"
  },
  {
    "name": "Red Hound",
    "type": "Cocktail Bar",
    "start": "16/08/2025",
    "delivery": "in person",
    "status": "open",
    "latitude": 53.393923,
    "longitude": -6.235108,
    "address": "676 Dublin Rd, Dublin, Ireland"
  },
  {
    "name": "Queen's Barrel",
    "type": "Lounge",
    "start": "17/09/2025",
    "delivery": "in person",
    "status": "open",
    "latitude": 48.881058,
    "longitude": 2.319695,
    "address": "966 Paris Rd, Paris, France"
  },
  {
    "name": "White Fox",
    "type": "Beer Hall",
    "start": "18/08/2025",
    "delivery": "in person",
    "status": "open",
    "latitude": 53.33023,
    "longitude": -6.244602,
    "address": "641 Dublin Rd, Dublin, Ireland"
  },
  {
    "name": "Silver Horse",
    "type": "Wine Bar",
    "start": "18/08/2025",
    "delivery": "in person",
    "status": "open",
    "latitude": 52.510888,
    "longitude": 13.449473,
    "address": "728 Berlin Rd, Berlin, Germany"
  },
  {
    "name": "Silver Crown",
    "type": "Traditional Pub",
    "start": "17/08/2025",
    "delivery": "in person",
    "status": "open",
    "latitude": 52.531894,
    "longitude": 13.390009,
    "address": "723 Berlin Rd, Berlin, Germany"
  },
  {
    "name": "The Anchor",
    "type": "Rooftop Bar",
    "start": "15/09/2025",
    "delivery": "in person",
    "status": "open",
    "latitude": -33.934487,
    "longitude": 18.467612,
    "address": "757 Cape Town Rd, Cape Town, South Africa"
  },
  {
    "name": "Golden Swan",
    "type": "Traditional Pub",
    "start": "11/08/2025",
    "delivery": "in person",
    "status": "open",
    "latitude": 53.356131,
    "longitude": -6.224679,
    "address": "565 Dublin Rd, Dublin, Ireland"
  },
  {
    "name": "King's Bridge",
    "type": "Brewpub",
    "start": "05/09/2025",
    "delivery": "in person",
    "status": "open",
    "latitude": -33.880584,
    "longitude": 18.473997,
    "address": "223 Cape Town Rd, Cape Town, South Africa"
  },
  {
    "name": "King's Tavern",
    "type": "Beach Bar",
    "start": "21/07/2025",
    "delivery": "in person",
    "status": "open",
    "latitude": 52.568644,
    "longitude": 13.374087,
    "address": "248 Berlin Rd, Berlin, Germany"
  },
  {
    "name": "New Fox",
    "type": "Traditional Pub",
    "start": "21/07/2025",
    "delivery": "in person",
    "status": "open",
    "latitude": 48.902024,
    "longitude": 2.352184,
    "address": "748 Paris Rd, Paris, France"
  },
  {
    "name": "Black Bridge",
    "type": "Tapas Bar",
    "start": "03/09/2025",
    "delivery": "in person",
    "status": "open",
    "latitude": 53.309505,
    "longitude": -6.25765,
    "address": "684 Dublin Rd, Dublin, Ireland"
  },
  {
    "name": "The Fox",
    "type": "Tapas Bar",
    "start": "30/07/2025",
    "delivery": "in person",
    "status": "open",
    "latitude": 43.639623,
    "longitude": -79.381675,
    "address": "360 Toronto Rd, Toronto, Canada"
  },
  {
    "name": "Queen's Swan",
    "type": "Cocktail Bar",
    "start": "30/08/2025",
    "delivery": "in person",
    "status": "open",
    "latitude": 40.437303,
    "longitude": -3.658976,
    "address": "856 Madrid Rd, Madrid, Spain"
  },
  {
    "name": "The Barrel",
    "type": "Sports Bar",
    "start": "12/09/2025",
    "delivery": "in person",
    "status": "open",
    "latitude": 35.720004,
    "longitude": 139.664002,
    "address": "724 Tokyo Rd, Tokyo, Japan"
  },
  {
    "name": "King's Barrel",
    "type": "Lounge",
    "start": "24/08/2025",
    "delivery": "in person",
    "status": "open",
    "latitude": 40.677256,
    "longitude": -73.99018,
    "address": "943 New York Rd, New York, United States"
  },
  {
    "name": "King's Fox",
    "type": "Traditional Pub",
    "start": "13/08/2025",
    "delivery": "in person",
    "status": "open",
    "latitude": 43.626404,
    "longitude": -79.401607,
    "address": "749 Toronto Rd, Toronto, Canada"
  },
  {
    "name": "New Swan",
    "type": "Wine Bar",
    "start": "12/08/2025",
    "delivery": "in person",
    "status": "open",
    "latitude": 40.443036,
    "longitude": -3.690178,
    "address": "927 Madrid Rd, Madrid, Spain"
  },
  {
    "name": "The Anchor",
    "type": "Lounge",
    "start": "06/08/2025",
    "delivery": "in person",
    "status": "open",
    "latitude": 52.508108,
    "longitude": 13.415267,
    "address": "544 Berlin Rd, Berlin, Germany"
  },
  {
    "name": "Black Crown",
    "type": "Rooftop Bar",
    "start": "03/08/2025",
    "delivery": "in person",
    "status": "open",
    "latitude": 53.358258,
    "longitude": -6.237174,
    "address": "33 Dublin Rd, Dublin, Ireland"
  },
  {
    "name": "Old Fox",
    "type": "Sports Bar",
    "start": "20/07/2025",
    "delivery": "in person",
    "status": "open",
    "latitude": 40.369944,
    "longitude": -3.738251,
    "address": "228 Madrid Rd, Madrid, Spain"
  },
  {
    "name": "Silver Anchor",
    "type": "Traditional Pub",
    "start": "29/08/2025",
    "delivery": "in person",
    "status": "open",
    "latitude": 51.478986,
    "longitude": -0.154129,
    "address": "946 London Rd, London, United Kingdom"
  },
  {
    "name": "The Fox",
    "type": "Traditional Pub",
    "start": "29/08/2025",
    "delivery": "in person",
    "status": "open",
    "latitude": 43.636686,
    "longitude": -79.393973,
    "address": "820 Toronto Rd, Toronto, Canada"
  },
  {
    "name": "Red Barrel",
    "type": "Beach Bar",
    "start": "30/07/2025",
    "delivery": "in person",
    "status": "open",
    "latitude": 51.519926,
    "longitude": -0.110365,
    "address": "7 London Rd, London, United Kingdom"
  },
  {
    "name": "King's Anchor",
    "type": "Brewpub",
    "start": "28/07/2025",
    "delivery": "in person",
    "status": "open",
    "latitude": 48.83086,
    "longitude": 2.38288,
    "address": "593 Paris Rd, Paris, France"
  },
  {
    "name": "Red Barrel",
    "type": "Sports Bar",
    "start": "29/08/2025",
    "delivery": "in person",
    "status": "open",
    "latitude": -33.941963,
    "longitude": 18.469467,
    "address": "790 Cape Town Rd, Cape Town, South Africa"
  },
  {
    "name": "King's Bridge",
    "type": "Beer Hall",
    "start": "21/07/2025",
    "delivery": "in person",
    "status": "open",
    "latitude": 51.556902,
    "longitude": -0.138672,
    "address": "104 London Rd, London, United Kingdom"
  },
  {
    "name": "Queen's Swan",
    "type": "Beer Hall",
    "start": "15/08/2025",
    "delivery": "in person",
    "status": "open",
    "latitude": 40.662884,
    "longitude": -73.975505,
    "address": "619 New York Rd, New York, United States"
  },
  {
    "name": "White Tavern",
    "type": "Cocktail Bar",
    "start": "22/08/2025",
    "delivery": "in person",
    "status": "open",
    "latitude": 35.657762,
    "longitude": 139.653658,
    "address": "956 Tokyo Rd, Tokyo, Japan"
  },
  {
    "name": "Old Swan",
    "type": "Lounge",
    "start": "14/09/2025",
    "delivery": "in person",
    "status": "open",
    "latitude": -33.893796,
    "longitude": 151.161619,
    "address": "619 Sydney Rd, Sydney, Australia"
  },
  {
    "name": "Golden Tavern",
    "type": "Brewpub",
    "start": "12/08/2025",
    "delivery": "in person",
    "status": "open",
    "latitude": 48.873587,
    "longitude": 2.351009,
    "address": "89 Paris Rd, Paris, France"
  },
  {
    "name": "Old Hound",
    "type": "Wine Bar",
    "start": "01/08/2025",
    "delivery": "in person",
    "status": "open",
    "latitude": 35.681978,
    "longitude": 139.66155,
    "address": "213 Tokyo Rd, Tokyo, Japan"
  },
  {
    "name": "White Crown",
    "type": "Brewpub",
    "start": "11/08/2025",
    "delivery": "in person",
    "status": "open",
    "latitude": 52.491375,
    "longitude": 13.397476,
    "address": "462 Berlin Rd, Berlin, Germany"
  },
  {
    "name": "Queen's Lion",
    "type": "Sports Bar",
    "start": "17/09/2025",
    "delivery": "in person",
    "status": "open",
    "latitude": 51.534341,
    "longitude": -0.131622,
    "address": "641 London Rd, London, United Kingdom"
  },
  {
    "name": "Old Swan",
    "type": "Beach Bar",
    "start": "03/08/2025",
    "delivery": "in person",
    "status": "open",
    "latitude": 40.383969,
    "longitude": -3.725861,
    "address": "548 Madrid Rd, Madrid, Spain"
  },
  {
    "name": "Red Bridge",
    "type": "Wine Bar",
    "start": "25/07/2025",
    "delivery": "in person",
    "status": "open",
    "latitude": 52.532057,
    "longitude": 13.369583,
    "address": "968 Berlin Rd, Berlin, Germany"
  },
  {
    "name": "Old Horse",
    "type": "Brewpub",
    "start": "11/09/2025",
    "delivery": "in person",
    "status": "open",
    "latitude": -33.913079,
    "longitude": 151.24517,
    "address": "722 Sydney Rd, Sydney, Australia"
  },
  {
    "name": "Red Anchor",
    "type": "Traditional Pub",
    "start": "22/08/2025",
    "delivery": "in person",
    "status": "open",
    "latitude": 43.622938,
    "longitude": -79.405931,
    "address": "12 Toronto Rd, Toronto, Canada"
  },
  {
    "name": "Queen's Horse",
    "type": "Beach Bar",
    "start": "06/09/2025",
    "delivery": "in person",
    "status": "open",
    "latitude": 40.723788,
    "longitude": -74.054687,
    "address": "226 New York Rd, New York, United States"
  },
  {
    "name": "King's Hound",
    "type": "Rooftop Bar",
    "start": "24/08/2025",
    "delivery": "in person",
    "status": "open",
    "latitude": -33.900719,
    "longitude": 18.378178,
    "address": "307 Cape Town Rd, Cape Town, South Africa"
  },
  {
    "name": "Old Barrel",
    "type": "Traditional Pub",
    "start": "22/08/2025",
    "delivery": "in person",
    "status": "open",
    "latitude": 43.688016,
    "longitude": -79.409255,
    "address": "799 Toronto Rd, Toronto, Canada"
  },
  {
    "name": "Queen's Fox",
    "type": "Cocktail Bar",
    "start": "15/08/2025",
    "delivery": "in person",
    "status": "open",
    "latitude": -33.828326,
    "longitude": 151.235799,
    "address": "816 Sydney Rd, Sydney, Australia"
  },
  {
    "name": "Black Lion",
    "type": "Brewpub",
    "start": "04/08/2025",
    "delivery": "in person",
    "status": "open",
    "latitude": 40.745536,
    "longitude": -74.051248,
    "address": "682 New York Rd, New York, United States"
  },
  {
    "name": "Old Fox",
    "type": "Sports Bar",
    "start": "22/08/2025",
    "delivery": "in person",
    "status": "open",
    "latitude": 40.732344,
    "longitude": -74.04846,
    "address": "626 New York Rd, New York, United States"
  },
  {
    "name": "The Anchor",
    "type": "Wine Bar",
    "start": "31/07/2025",
    "delivery": "in person",
    "status": "open",
    "latitude": 53.31953,
    "longitude": -6.215623,
    "address": "902 Dublin Rd, Dublin, Ireland"
  },
  {
    "name": "Black Horse",
    "type": "Cocktail Bar",
    "start": "22/08/2025",
    "delivery": "in person",
    "status": "open",
    "latitude": 43.607093,
    "longitude": -79.346757,
    "address": "503 Toronto Rd, Toronto, Canada"
  },
  {
    "name": "Queen's Fox",
    "type": "Beach Bar",
    "start": "17/08/2025",
    "delivery": "in person",
    "status": "open",
    "latitude": 40.397455,
    "longitude": -3.704379,
    "address": "652 Madrid Rd, Madrid, Spain"
  },
  {
    "name": "White Fox",
    "type": "Brewpub",
    "start": "28/08/2025",
    "delivery": "in person",
    "status": "open",
    "latitude": -33.835408,
    "longitude": 151.191459,
    "address": "632 Sydney Rd, Sydney, Australia"
  },
  {
    "name": "Black Fox",
    "type": "Lounge",
    "start": "10/08/2025",
    "delivery": "in person",
    "status": "open",
    "latitude": -33.9063,
    "longitude": 151.21218,
    "address": "875 Sydney Rd, Sydney, Australia"
  },
  {
    "name": "White Lion",
    "type": "Cocktail Bar",
    "start": "14/09/2025",
    "delivery": "in person",
    "status": "open",
    "latitude": 40.437319,
    "longitude": -3.698921,
    "address": "252 Madrid Rd, Madrid, Spain"
  },
  {
    "name": "Red Horse",
    "type": "Traditional Pub",
    "start": "20/07/2025",
    "delivery": "in person",
    "status": "open",
    "latitude": 53.357696,
    "longitude": -6.27487,
    "address": "493 Dublin Rd, Dublin, Ireland"
  },
  {
    "name": "Golden Horse",
    "type": "Beach Bar",
    "start": "16/08/2025",
    "delivery": "in person",
    "status": "open",
    "latitude": 52.500277,
    "longitude": 13.358035,
    "address": "415 Berlin Rd, Berlin, Germany"
  },
  {
    "name": "Silver Swan",
    "type": "Sports Bar",
    "start": "15/09/2025",
    "delivery": "in person",
    "status": "open",
    "latitude": 48.816384,
    "longitude": 2.380603,
    "address": "565 Paris Rd, Paris, France"
  },
  {
    "name": "Queen's Barrel",
    "type": "Wine Bar",
    "start": "29/07/2025",
    "delivery": "in person",
    "status": "open",
    "latitude": 35.68771,
    "longitude": 139.739951,
    "address": "654 Tokyo Rd, Tokyo, Japan"
  },
  {
    "name": "New Tavern",
    "type": "Lounge",
    "start": "19/07/2025",
    "delivery": "in person",
    "status": "open",
    "latitude": 35.697525,
    "longitude": 139.691047,
    "address": "853 Tokyo Rd, Tokyo, Japan"
  },
  {
    "name": "New Anchor",
    "type": "Brewpub",
    "start": "29/07/2025",
    "delivery": "in person",
    "status": "open",
    "latitude": 40.451537,
    "longitude": -3.705525,
    "address": "424 Madrid Rd, Madrid, Spain"
  },
  {
    "name": "The Fox",
    "type": "Tapas Bar",
    "start": "28/07/2025",
    "delivery": "in person",
    "status": "open",
    "latitude": 40.457455,
    "longitude": -3.72423,
    "address": "857 Madrid Rd, Madrid, Spain"
  },
  {
    "name": "Old Lion",
    "type": "Beer Hall",
    "start": "03/08/2025",
    "delivery": "in person",
    "status": "open",
    "latitude": 35.723553,
    "longitude": 139.714464,
    "address": "54 Tokyo Rd, Tokyo, Japan"
  },
  {
    "name": "Red Barrel",
    "type": "Beer Hall",
    "start": "13/08/2025",
    "delivery": "in person",
    "status": "open",
    "latitude": -33.937503,
    "longitude": 18.466189,
    "address": "543 Cape Town Rd, Cape Town, South Africa"
  },
  {
    "name": "Black Tavern",
    "type": "Rooftop Bar",
    "start": "03/08/2025",
    "delivery": "in person",
    "status": "open",
    "latitude": 53.300551,
    "longitude": -6.241466,
    "address": "807 Dublin Rd, Dublin, Ireland"
  },
  {
    "name": "King's Barrel",
    "type": "Lounge",
    "start": "07/09/2025",
    "delivery": "in person",
    "status": "open",
    "latitude": 52.496674,
    "longitude": 13.363472,
    "address": "192 Berlin Rd, Berlin, Germany"
  },
  {
    "name": "King's Swan",
    "type": "Brewpub",
    "start": "29/07/2025",
    "delivery": "in person",
    "status": "open",
    "latitude": 51.542328,
    "longitude": -0.10623,
    "address": "457 London Rd, London, United Kingdom"
  },
  {
    "name": "White Fox",
    "type": "Lounge",
    "start": "11/09/2025",
    "delivery": "in person",
    "status": "open",
    "latitude": 52.554331,
    "longitude": 13.388359,
    "address": "802 Berlin Rd, Berlin, Germany"
  },
  {
    "name": "Silver Horse",
    "type": "Wine Bar",
    "start": "15/08/2025",
    "delivery": "in person",
    "status": "open",
    "latitude": 48.840007,
    "longitude": 2.378959,
    "address": "733 Paris Rd, Paris, France"
  },
  {
    "name": "Golden Anchor",
    "type": "Beach Bar",
    "start": "30/07/2025",
    "delivery": "in person",
    "status": "open",
    "latitude": 52.498542,
    "longitude": 13.438564,
    "address": "759 Berlin Rd, Berlin, Germany"
  },
  {
    "name": "Queen's Lion",
    "type": "Beach Bar",
    "start": "14/08/2025",
    "delivery": "in person",
    "status": "open",
    "latitude": 53.360277,
    "longitude": -6.263349,
    "address": "127 Dublin Rd, Dublin, Ireland"
  },
  {
    "name": "New Bridge",
    "type": "Cocktail Bar",
    "start": "18/08/2025",
    "delivery": "in person",
    "status": "open",
    "latitude": 40.736476,
    "longitude": -74.024172,
    "address": "963 New York Rd, New York, United States"
  },
  {
    "name": "Black Hound",
    "type": "Lounge",
    "start": "27/08/2025",
    "delivery": "in person",
    "status": "open",
    "latitude": 43.611312,
    "longitude": -79.36478,
    "address": "708 Toronto Rd, Toronto, Canada"
  },
  {
    "name": "New Swan",
    "type": "Wine Bar",
    "start": "14/08/2025",
    "delivery": "in person",
    "status": "open",
    "latitude": 35.709503,
    "longitude": 139.682041,
    "address": "262 Tokyo Rd, Tokyo, Japan"
  },
  {
    "name": "Golden Anchor",
    "type": "Tapas Bar",
    "start": "27/07/2025",
    "delivery": "in person",
    "status": "open",
    "latitude": 40.402402,
    "longitude": -3.694361,
    "address": "362 Madrid Rd, Madrid, Spain"
  },
  {
    "name": "Queen's Horse",
    "type": "Traditional Pub",
    "start": "29/07/2025",
    "delivery": "in person",
    "status": "open",
    "latitude": 40.457875,
    "longitude": -3.711208,
    "address": "654 Madrid Rd, Madrid, Spain"
  },
  {
    "name": "Red Fox",
    "type": "Lounge",
    "start": "31/08/2025",
    "delivery": "in person",
    "status": "open",
    "latitude": 48.865424,
    "longitude": 2.309663,
    "address": "641 Paris Rd, Paris, France"
  },
  {
    "name": "King's Swan",
    "type": "Traditional Pub",
    "start": "29/07/2025",
    "delivery": "in person",
    "status": "open",
    "latitude": -33.846982,
    "longitude": 151.163882,
    "address": "618 Sydney Rd, Sydney, Australia"
  },
  {
    "name": "Black Swan",
    "type": "Beach Bar",
    "start": "25/07/2025",
    "delivery": "in person",
    "status": "open",
    "latitude": 52.504785,
    "longitude": 13.363891,
    "address": "808 Berlin Rd, Berlin, Germany"
  },
  {
    "name": "Golden Barrel",
    "type": "Lounge",
    "start": "15/08/2025",
    "delivery": "in person",
    "status": "open",
    "latitude": 53.376953,
    "longitude": -6.246651,
    "address": "776 Dublin Rd, Dublin, Ireland"
  },
  {
    "name": "Old Anchor",
    "type": "Sports Bar",
    "start": "02/09/2025",
    "delivery": "in person",
    "status": "open",
    "latitude": 53.398143,
    "longitude": -6.228489,
    "address": "500 Dublin Rd, Dublin, Ireland"
  },
  {
    "name": "Old Bridge",
    "type": "Beach Bar",
    "start": "13/08/2025",
    "delivery": "in person",
    "status": "open",
    "latitude": 40.396719,
    "longitude": -3.699247,
    "address": "833 Madrid Rd, Madrid, Spain"
  },
  {
    "name": "Silver Crown",
    "type": "Lounge",
    "start": "31/07/2025",
    "delivery": "in person",
    "status": "open",
    "latitude": 40.709496,
    "longitude": -74.029486,
    "address": "980 New York Rd, New York, United States"
  },
  {
    "name": "Black Lion",
    "type": "Beer Hall",
    "start": "23/07/2025",
    "delivery": "in person",
    "status": "open",
    "latitude": 35.694692,
    "longitude": 139.683905,
    "address": "829 Tokyo Rd, Tokyo, Japan"
  },
  {
    "name": "White Anchor",
    "type": "Sports Bar",
    "start": "19/08/2025",
    "delivery": "in person",
    "status": "open",
    "latitude": -33.844154,
    "longitude": 151.228148,
    "address": "123 Sydney Rd, Sydney, Australia"
  },
  {
    "name": "Black Fox",
    "type": "Brewpub",
    "start": "23/07/2025",
    "delivery": "in person",
    "status": "open",
    "latitude": 35.669765,
    "longitude": 139.702888,
    "address": "530 Tokyo Rd, Tokyo, Japan"
  },
  {
    "name": "Black Anchor",
    "type": "Brewpub",
    "start": "22/07/2025",
    "delivery": "in person",
    "status": "open",
    "latitude": 51.46214,
    "longitude": -0.089954,
    "address": "153 London Rd, London, United Kingdom"
  },
  {
    "name": "Silver Lion",
    "type": "Lounge",
    "start": "05/08/2025",
    "delivery": "in person",
    "status": "open",
    "latitude": 51.527787,
    "longitude": -0.159481,
    "address": "251 London Rd, London, United Kingdom"
  },
  {
    "name": "King's Swan",
    "type": "Wine Bar",
    "start": "12/09/2025",
    "delivery": "in person",
    "status": "open",
    "latitude": 40.702212,
    "longitude": -73.986365,
    "address": "677 New York Rd, New York, United States"
  },
  {
    "name": "New Anchor",
    "type": "Brewpub",
    "start": "20/07/2025",
    "delivery": "in person",
    "status": "open",
    "latitude": 48.844045,
    "longitude": 2.397655,
    "address": "10 Paris Rd, Paris, France"
  },
  {
    "name": "King's Lion",
    "type": "Lounge",
    "start": "11/09/2025",
    "delivery": "in person",
    "status": "open",
    "latitude": -33.905931,
    "longitude": 18.447686,
    "address": "36 Cape Town Rd, Cape Town, South Africa"
  },
  {
    "name": "Red Hound",
    "type": "Lounge",
    "start": "19/07/2025",
    "delivery": "in person",
    "status": "open",
    "latitude": 48.828844,
    "longitude": 2.336676,
    "address": "43 Paris Rd, Paris, France"
  },
  {
    "name": "Old Bridge",
    "type": "Wine Bar",
    "start": "01/08/2025",
    "delivery": "in person",
    "status": "open",
    "latitude": 48.863058,
    "longitude": 2.302375,
    "address": "85 Paris Rd, Paris, France"
  },
  {
    "name": "Silver Barrel",
    "type": "Traditional Pub",
    "start": "26/08/2025",
    "delivery": "in person",
    "status": "open",
    "latitude": 43.605694,
    "longitude": -79.371812,
    "address": "503 Toronto Rd, Toronto, Canada"
  },
  {
    "name": "New Horse",
    "type": "Rooftop Bar",
    "start": "30/08/2025",
    "delivery": "in person",
    "status": "open",
    "latitude": -33.856477,
    "longitude": 151.248503,
    "address": "688 Sydney Rd, Sydney, Australia"
  },
  {
    "name": "Old Tavern",
    "type": "Traditional Pub",
    "start": "21/08/2025",
    "delivery": "in person",
    "status": "open",
    "latitude": 48.85426,
    "longitude": 2.356413,
    "address": "476 Paris Rd, Paris, France"
  },
  {
    "name": "King's Fox",
    "type": "Wine Bar",
    "start": "09/08/2025",
    "delivery": "in person",
    "status": "open",
    "latitude": -33.880104,
    "longitude": 18.375119,
    "address": "83 Cape Town Rd, Cape Town, South Africa"
  },
  {
    "name": "Queen's Swan",
    "type": "Lounge",
    "start": "17/09/2025",
    "delivery": "in person",
    "status": "open",
    "latitude": 53.333687,
    "longitude": -6.306469,
    "address": "129 Dublin Rd, Dublin, Ireland"
  },
  {
    "name": "King's Hound",
    "type": "Wine Bar",
    "start": "06/08/2025",
    "delivery": "in person",
    "status": "open",
    "latitude": 53.387742,
    "longitude": -6.237294,
    "address": "933 Dublin Rd, Dublin, Ireland"
  },
  {
    "name": "Black Horse",
    "type": "Beach Bar",
    "start": "07/08/2025",
    "delivery": "in person",
    "status": "open",
    "latitude": -33.822156,
    "longitude": 151.227733,
    "address": "84 Sydney Rd, Sydney, Australia"
  },
  {
    "name": "Old Crown",
    "type": "Cocktail Bar",
    "start": "25/07/2025",
    "delivery": "in person",
    "status": "open",
    "latitude": 51.513117,
    "longitude": -0.098631,
    "address": "999 London Rd, London, United Kingdom"
  },
  {
    "name": "White Barrel",
    "type": "Beach Bar",
    "start": "17/08/2025",
    "delivery": "in person",
    "status": "open",
    "latitude": -33.908922,
    "longitude": 18.377379,
    "address": "56 Cape Town Rd, Cape Town, South Africa"
  },
  {
    "name": "White Anchor",
    "type": "Traditional Pub",
    "start": "02/08/2025",
    "delivery": "in person",
    "status": "open",
    "latitude": 51.509946,
    "longitude": -0.118535,
    "address": "137 London Rd, London, United Kingdom"
  },
  {
    "name": "Black Barrel",
    "type": "Lounge",
    "start": "07/09/2025",
    "delivery": "in person",
    "status": "open",
    "latitude": 52.519755,
    "longitude": 13.388672,
    "address": "748 Berlin Rd, Berlin, Germany"
  },
  {
    "name": "The Crown",
    "type": "Wine Bar",
    "start": "26/07/2025",
    "delivery": "in person",
    "status": "open",
    "latitude": 53.381588,
    "longitude": -6.305649,
    "address": "92 Dublin Rd, Dublin, Ireland"
  },
  {
    "name": "Queen's Barrel",
    "type": "Beer Hall",
    "start": "31/07/2025",
    "delivery": "in person",
    "status": "open",
    "latitude": 43.605509,
    "longitude": -79.42562,
    "address": "168 Toronto Rd, Toronto, Canada"
  },
  {
    "name": "White Barrel",
    "type": "Sports Bar",
    "start": "16/09/2025",
    "delivery": "in person",
    "status": "open",
    "latitude": 40.755075,
    "longitude": -73.996389,
    "address": "346 New York Rd, New York, United States"
  },
  {
    "name": "Silver Swan",
    "type": "Tapas Bar",
    "start": "19/08/2025",
    "delivery": "in person",
    "status": "open",
    "latitude": 51.557357,
    "longitude": -0.125311,
    "address": "478 London Rd, London, United Kingdom"
  },
  {
    "name": "The Barrel",
    "type": "Sports Bar",
    "start": "21/07/2025",
    "delivery": "in person",
    "status": "open",
    "latitude": 40.457418,
    "longitude": -3.727596,
    "address": "246 Madrid Rd, Madrid, Spain"
  },
  {
    "name": "New Tavern",
    "type": "Lounge",
    "start": "30/07/2025",
    "delivery": "in person",
    "status": "open",
    "latitude": 43.644963,
    "longitude": -79.388716,
    "address": "19 Toronto Rd, Toronto, Canada"
  },
  {
    "name": "New Fox",
    "type": "Brewpub",
    "start": "24/07/2025",
    "delivery": "in person",
    "status": "open",
    "latitude": 53.350997,
    "longitude": -6.241827,
    "address": "586 Dublin Rd, Dublin, Ireland"
  },
  {
    "name": "The Horse",
    "type": "Rooftop Bar",
    "start": "17/08/2025",
    "delivery": "in person",
    "status": "open",
    "latitude": 40.74225,
    "longitude": -73.965711,
    "address": "992 New York Rd, New York, United States"
  },
  {
    "name": "Silver Tavern",
    "type": "Traditional Pub",
    "start": "19/08/2025",
    "delivery": "in person",
    "status": "open",
    "latitude": -33.877993,
    "longitude": 151.239534,
    "address": "897 Sydney Rd, Sydney, Australia"
  },
  {
    "name": "New Crown",
    "type": "Wine Bar",
    "start": "25/08/2025",
    "delivery": "in person",
    "status": "open",
    "latitude": 40.710035,
    "longitude": -73.988035,
    "address": "487 New York Rd, New York, United States"
  },
  {
    "name": "Silver Swan",
    "type": "Wine Bar",
    "start": "23/08/2025",
    "delivery": "in person",
    "status": "open",
    "latitude": 52.484421,
    "longitude": 13.439787,
    "address": "507 Berlin Rd, Berlin, Germany"
  },
  {
    "name": "Old Bridge",
    "type": "Beer Hall",
    "start": "22/07/2025",
    "delivery": "in person",
    "status": "open",
    "latitude": -33.908284,
    "longitude": 151.211802,
    "address": "509 Sydney Rd, Sydney, Australia"
  },
  {
    "name": "White Crown",
    "type": "Sports Bar",
    "start": "17/08/2025",
    "delivery": "in person",
    "status": "open",
    "latitude": 40.375181,
    "longitude": -3.693507,
    "address": "243 Madrid Rd, Madrid, Spain"
  },
  {
    "name": "White Barrel",
    "type": "Tapas Bar",
    "start": "23/08/2025",
    "delivery": "in person",
    "status": "open",
    "latitude": 52.501231,
    "longitude": 13.401449,
    "address": "347 Berlin Rd, Berlin, Germany"
  },
  {
    "name": "New Lion",
    "type": "Brewpub",
    "start": "14/09/2025",
    "delivery": "in person",
    "status": "open",
    "latitude": 53.371727,
    "longitude": -6.278919,
    "address": "595 Dublin Rd, Dublin, Ireland"
  },
  {
    "name": "King's Bridge",
    "type": "Lounge",
    "start": "02/08/2025",
    "delivery": "in person",
    "status": "open",
    "latitude": 35.706364,
    "longitude": 139.647884,
    "address": "260 Tokyo Rd, Tokyo, Japan"
  },
  {
    "name": "The Barrel",
    "type": "Sports Bar",
    "start": "03/09/2025",
    "delivery": "in person",
    "status": "open",
    "latitude": 40.378681,
    "longitude": -3.683929,
    "address": "291 Madrid Rd, Madrid, Spain"
  },
  {
    "name": "White Bridge",
    "type": "Sports Bar",
    "start": "14/08/2025",
    "delivery": "in person",
    "status": "open",
    "latitude": 43.650213,
    "longitude": -79.424424,
    "address": "296 Toronto Rd, Toronto, Canada"
  },
  {
    "name": "Silver Barrel",
    "type": "Cocktail Bar",
    "start": "23/08/2025",
    "delivery": "in person",
    "status": "open",
    "latitude": 53.390441,
    "longitude": -6.307215,
    "address": "650 Dublin Rd, Dublin, Ireland"
  },
  {
    "name": "New Barrel",
    "type": "Beer Hall",
    "start": "16/09/2025",
    "delivery": "in person",
    "status": "open",
    "latitude": 35.675467,
    "longitude": 139.665275,
    "address": "297 Tokyo Rd, Tokyo, Japan"
  },
  {
    "name": "White Swan",
    "type": "Rooftop Bar",
    "start": "16/08/2025",
    "delivery": "in person",
    "status": "open",
    "latitude": 40.463491,
    "longitude": -3.688328,
    "address": "245 Madrid Rd, Madrid, Spain"
  },
  {
    "name": "Golden Tavern",
    "type": "Sports Bar",
    "start": "15/09/2025",
    "delivery": "in person",
    "status": "open",
    "latitude": 35.683014,
    "longitude": 139.684527,
    "address": "640 Tokyo Rd, Tokyo, Japan"
  },
  {
    "name": "Golden Hound",
    "type": "Brewpub",
    "start": "26/08/2025",
    "delivery": "in person",
    "status": "open",
    "latitude": 35.703398,
    "longitude": 139.65365,
    "address": "232 Tokyo Rd, Tokyo, Japan"
  },
  {
    "name": "The Lion",
    "type": "Sports Bar",
    "start": "12/08/2025",
    "delivery": "in person",
    "status": "open",
    "latitude": 40.36972,
    "longitude": -3.732083,
    "address": "168 Madrid Rd, Madrid, Spain"
  },
  {
    "name": "Black Lion",
    "type": "Lounge",
    "start": "28/07/2025",
    "delivery": "in person",
    "status": "open",
    "latitude": 52.499503,
    "longitude": 13.359781,
    "address": "933 Berlin Rd, Berlin, Germany"
  },
  {
    "name": "New Tavern",
    "type": "Lounge",
    "start": "04/09/2025",
    "delivery": "in person",
    "status": "open",
    "latitude": 43.679347,
    "longitude": -79.399113,
    "address": "751 Toronto Rd, Toronto, Canada"
  },
  {
    "name": "Golden Horse",
    "type": "Traditional Pub",
    "start": "05/08/2025",
    "delivery": "in person",
    "status": "open",
    "latitude": 53.378423,
    "longitude": -6.245672,
    "address": "189 Dublin Rd, Dublin, Ireland"
  },
  {
    "name": "Queen's Anchor",
    "type": "Wine Bar",
    "start": "07/09/2025",
    "delivery": "in person",
    "status": "open",
    "latitude": 40.459614,
    "longitude": -3.692328,
    "address": "114 Madrid Rd, Madrid, Spain"
  },
  {
    "name": "King's Hound",
    "type": "Beach Bar",
    "start": "09/09/2025",
    "delivery": "in person",
    "status": "open",
    "latitude": 48.875599,
    "longitude": 2.334133,
    "address": "258 Paris Rd, Paris, France"
  },
  {
    "name": "Queen's Anchor",
    "type": "Beer Hall",
    "start": "25/07/2025",
    "delivery": "in person",
    "status": "open",
    "latitude": 35.704616,
    "longitude": 139.733206,
    "address": "204 Tokyo Rd, Tokyo, Japan"
  },
  {
    "name": "Old Bridge",
    "type": "Wine Bar",
    "start": "19/08/2025",
    "delivery": "in person",
    "status": "open",
    "latitude": 35.643812,
    "longitude": 139.718804,
    "address": "440 Tokyo Rd, Tokyo, Japan"
  },
  {
    "name": "The Hound",
    "type": "Brewpub",
    "start": "26/08/2025",
    "delivery": "in person",
    "status": "open",
    "latitude": 40.732725,
    "longitude": -73.980617,
    "address": "167 New York Rd, New York, United States"
  },
  {
    "name": "The Crown",
    "type": "Tapas Bar",
    "start": "04/08/2025",
    "delivery": "in person",
    "status": "open",
    "latitude": 43.631807,
    "longitude": -79.37645,
    "address": "542 Toronto Rd, Toronto, Canada"
  },
  {
    "name": "Golden Bridge",
    "type": "Wine Bar",
    "start": "15/09/2025",
    "delivery": "in person",
    "status": "open",
    "latitude": -33.874332,
    "longitude": 151.202146,
    "address": "551 Sydney Rd, Sydney, Australia"
  },
  {
    "name": "Red Barrel",
    "type": "Beer Hall",
    "start": "10/08/2025",
    "delivery": "in person",
    "status": "open",
    "latitude": 53.381166,
    "longitude": -6.304503,
    "address": "612 Dublin Rd, Dublin, Ireland"
  },
  {
    "name": "New Bridge",
    "type": "Rooftop Bar",
    "start": "09/09/2025",
    "delivery": "in person",
    "status": "open",
    "latitude": 48.835731,
    "longitude": 2.315442,
    "address": "649 Paris Rd, Paris, France"
  },
  {
    "name": "New Crown",
    "type": "Cocktail Bar",
    "start": "30/08/2025",
    "delivery": "in person",
    "status": "open",
    "latitude": 48.865726,
    "longitude": 2.385802,
    "address": "427 Paris Rd, Paris, France"
  },
  {
    "name": "King's Bridge",
    "type": "Rooftop Bar",
    "start": "21/08/2025",
    "delivery": "in person",
    "status": "open",
    "latitude": 48.829639,
    "longitude": 2.37671,
    "address": "849 Paris Rd, Paris, France"
  },
  {
    "name": "Red Crown",
    "type": "Beach Bar",
    "start": "01/08/2025",
    "delivery": "in person",
    "status": "open",
    "latitude": 35.68781,
    "longitude": 139.70491,
    "address": "39 Tokyo Rd, Tokyo, Japan"
  },
  {
    "name": "Red Barrel",
    "type": "Beer Hall",
    "start": "05/08/2025",
    "delivery": "in person",
    "status": "open",
    "latitude": 53.330725,
    "longitude": -6.266207,
    "address": "369 Dublin Rd, Dublin, Ireland"
  },
  {
    "name": "King's Bridge",
    "type": "Brewpub",
    "start": "15/09/2025",
    "delivery": "in person",
    "status": "open",
    "latitude": 40.414295,
    "longitude": -3.658842,
    "address": "290 Madrid Rd, Madrid, Spain"
  },
  {
    "name": "King's Bridge",
    "type": "Lounge",
    "start": "27/07/2025",
    "delivery": "in person",
    "status": "open",
    "latitude": -33.907645,
    "longitude": 18.425988,
    "address": "610 Cape Town Rd, Cape Town, South Africa"
  },
  {
    "name": "Queen's Tavern",
    "type": "Sports Bar",
    "start": "27/08/2025",
    "delivery": "in person",
    "status": "open",
    "latitude": 35.69641,
    "longitude": 139.652793,
    "address": "603 Tokyo Rd, Tokyo, Japan"
  },
  {
    "name": "Old Bridge",
    "type": "Brewpub",
    "start": "22/08/2025",
    "delivery": "in person",
    "status": "open",
    "latitude": 52.493435,
    "longitude": 13.357489,
    "address": "851 Berlin Rd, Berlin, Germany"
  },
  {
    "name": "Golden Bridge",
    "type": "Cocktail Bar",
    "start": "05/08/2025",
    "delivery": "in person",
    "status": "open",
    "latitude": 43.660922,
    "longitude": -79.34632,
    "address": "30 Toronto Rd, Toronto, Canada"
  },
  {
    "name": "White Bridge",
    "type": "Beer Hall",
    "start": "22/07/2025",
    "delivery": "in person",
    "status": "open",
    "latitude": 51.519167,
    "longitude": -0.142822,
    "address": "615 London Rd, London, United Kingdom"
  },
  {
    "name": "Silver Fox",
    "type": "Traditional Pub",
    "start": "24/08/2025",
    "delivery": "in person",
    "status": "open",
    "latitude": 53.331053,
    "longitude": -6.243468,
    "address": "135 Dublin Rd, Dublin, Ireland"
  },
  {
    "name": "Silver Hound",
    "type": "Beer Hall",
    "start": "10/08/2025",
    "delivery": "in person",
    "status": "open",
    "latitude": 35.668217,
    "longitude": 139.675466,
    "address": "649 Tokyo Rd, Tokyo, Japan"
  },
  {
    "name": "Old Hound",
    "type": "Rooftop Bar",
    "start": "31/08/2025",
    "delivery": "in person",
    "status": "open",
    "latitude": 40.443658,
    "longitude": -3.665058,
    "address": "841 Madrid Rd, Madrid, Spain"
  },
  {
    "name": "The Fox",
    "type": "Brewpub",
    "start": "28/08/2025",
    "delivery": "in person",
    "status": "open",
    "latitude": -33.913586,
    "longitude": 18.468652,
    "address": "530 Cape Town Rd, Cape Town, South Africa"
  },
  {
    "name": "White Fox",
    "type": "Beer Hall",
    "start": "30/08/2025",
    "delivery": "in person",
    "status": "open",
    "latitude": 51.531158,
    "longitude": -0.127311,
    "address": "657 London Rd, London, United Kingdom"
  },
  {
    "name": "Old Hound",
    "type": "Beer Hall",
    "start": "15/08/2025",
    "delivery": "in person",
    "status": "open",
    "latitude": 35.639681,
    "longitude": 139.690647,
    "address": "348 Tokyo Rd, Tokyo, Japan"
  },
  {
    "name": "Silver Bridge",
    "type": "Lounge",
    "start": "21/07/2025",
    "delivery": "in person",
    "status": "open",
    "latitude": -33.931662,
    "longitude": 18.463989,
    "address": "895 Cape Town Rd, Cape Town, South Africa"
  },
  {
    "name": "White Fox",
    "type": "Wine Bar",
    "start": "30/07/2025",
    "delivery": "in person",
    "status": "open",
    "latitude": 43.699996,
    "longitude": -79.397711,
    "address": "968 Toronto Rd, Toronto, Canada"
  },
  {
    "name": "New Horse",
    "type": "Beer Hall",
    "start": "31/08/2025",
    "delivery": "in person",
    "status": "open",
    "latitude": -33.912372,
    "longitude": 151.164854,
    "address": "669 Sydney Rd, Sydney, Australia"
  },
  {
    "name": "Black Crown",
    "type": "Cocktail Bar",
    "start": "16/08/2025",
    "delivery": "in person",
    "status": "open",
    "latitude": 48.88827,
    "longitude": 2.35218,
    "address": "887 Paris Rd, Paris, France"
  },
  {
    "name": "King's Horse",
    "type": "Beach Bar",
    "start": "07/09/2025",
    "delivery": "in person",
    "status": "open",
    "latitude": 40.680622,
    "longitude": -74.040724,
    "address": "43 New York Rd, New York, United States"
  },
  {
    "name": "Queen's Fox",
    "type": "Wine Bar",
    "start": "05/09/2025",
    "delivery": "in person",
    "status": "open",
    "latitude": 52.501587,
    "longitude": 13.383791,
    "address": "366 Berlin Rd, Berlin, Germany"
  },
  {
    "name": "The Anchor",
    "type": "Lounge",
    "start": "13/08/2025",
    "delivery": "in person",
    "status": "open",
    "latitude": 48.842712,
    "longitude": 2.314026,
    "address": "972 Paris Rd, Paris, France"
  },
  {
    "name": "The Barrel",
    "type": "Rooftop Bar",
    "start": "31/08/2025",
    "delivery": "in person",
    "status": "open",
    "latitude": -33.847367,
    "longitude": 151.216428,
    "address": "429 Sydney Rd, Sydney, Australia"
  },
  {
    "name": "Black Barrel",
    "type": "Brewpub",
    "start": "07/08/2025",
    "delivery": "in person",
    "status": "open",
    "latitude": -33.885955,
    "longitude": 151.258122,
    "address": "111 Sydney Rd, Sydney, Australia"
  },
  {
    "name": "New Lion",
    "type": "Cocktail Bar",
    "start": "01/09/2025",
    "delivery": "in person",
    "status": "open",
    "latitude": 43.672876,
    "longitude": -79.359703,
    "address": "516 Toronto Rd, Toronto, Canada"
  },
  {
    "name": "Red Hound",
    "type": "Brewpub",
    "start": "15/08/2025",
    "delivery": "in person",
    "status": "open",
    "latitude": 40.379408,
    "longitude": -3.722892,
    "address": "690 Madrid Rd, Madrid, Spain"
  },
  {
    "name": "Black Swan",
    "type": "Wine Bar",
    "start": "11/09/2025",
    "delivery": "in person",
    "status": "open",
    "latitude": -33.832317,
    "longitude": 151.2401,
    "address": "429 Sydney Rd, Sydney, Australia"
  },
  {
    "name": "New Crown",
    "type": "Brewpub",
    "start": "27/08/2025",
    "delivery": "in person",
    "status": "open",
    "latitude": 40.689393,
    "longitude": -73.965775,
    "address": "744 New York Rd, New York, United States"
  },
  {
    "name": "Silver Barrel",
    "type": "Traditional Pub",
    "start": "16/09/2025",
    "delivery": "in person",
    "status": "open",
    "latitude": 40.757893,
    "longitude": -74.053511,
    "address": "379 New York Rd, New York, United States"
  },
  {
    "name": "Old Horse",
    "type": "Brewpub",
    "start": "31/07/2025",
    "delivery": "in person",
    "status": "open",
    "latitude": 40.450097,
    "longitude": -3.65398,
    "address": "35 Madrid Rd, Madrid, Spain"
  },
  {
    "name": "Golden Crown",
    "type": "Traditional Pub",
    "start": "21/07/2025",
    "delivery": "in person",
    "status": "open",
    "latitude": 53.361624,
    "longitude": -6.283074,
    "address": "349 Dublin Rd, Dublin, Ireland"
  },
  {
    "name": "The Horse",
    "type": "Lounge",
    "start": "03/08/2025",
    "delivery": "in person",
    "status": "open",
    "latitude": 52.549025,
    "longitude": 13.433755,
    "address": "380 Berlin Rd, Berlin, Germany"
  },
  {
    "name": "Black Hound",
    "type": "Traditional Pub",
    "start": "09/09/2025",
    "delivery": "in person",
    "status": "open",
    "latitude": -33.961235,
    "longitude": 18.446845,
    "address": "64 Cape Town Rd, Cape Town, South Africa"
  },
  {
    "name": "White Lion",
    "type": "Tapas Bar",
    "start": "28/08/2025",
    "delivery": "in person",
    "status": "open",
    "latitude": 43.663758,
    "longitude": -79.371079,
    "address": "254 Toronto Rd, Toronto, Canada"
  },
  {
    "name": "The Lion",
    "type": "Tapas Bar",
    "start": "17/09/2025",
    "delivery": "in person",
    "status": "open",
    "latitude": -33.949642,
    "longitude": 18.392796,
    "address": "603 Cape Town Rd, Cape Town, South Africa"
  },
  {
    "name": "Queen's Barrel",
    "type": "Wine Bar",
    "start": "12/08/2025",
    "delivery": "in person",
    "status": "open",
    "latitude": 35.690572,
    "longitude": 139.721015,
    "address": "569 Tokyo Rd, Tokyo, Japan"
  },
  {
    "name": "White Crown",
    "type": "Lounge",
    "start": "15/08/2025",
    "delivery": "in person",
    "status": "open",
    "latitude": 40.420212,
    "longitude": -3.706979,
    "address": "559 Madrid Rd, Madrid, Spain"
  },
  {
    "name": "Red Fox",
    "type": "Wine Bar",
    "start": "20/08/2025",
    "delivery": "in person",
    "status": "open",
    "latitude": 40.666451,
    "longitude": -73.997443,
    "address": "926 New York Rd, New York, United States"
  },
  {
    "name": "Silver Barrel",
    "type": "Beer Hall",
    "start": "08/09/2025",
    "delivery": "in person",
    "status": "open",
    "latitude": 35.673334,
    "longitude": 139.699906,
    "address": "25 Tokyo Rd, Tokyo, Japan"
  },
  {
    "name": "Red Lion",
    "type": "Lounge",
    "start": "28/07/2025",
    "delivery": "in person",
    "status": "open",
    "latitude": 40.411827,
    "longitude": -3.724967,
    "address": "329 Madrid Rd, Madrid, Spain"
  },
  {
    "name": "White Hound",
    "type": "Sports Bar",
    "start": "12/09/2025",
    "delivery": "in person",
    "status": "open",
    "latitude": 40.668444,
    "longitude": -74.038413,
    "address": "350 New York Rd, New York, United States"
  },
  {
    "name": "New Fox",
    "type": "Brewpub",
    "start": "10/09/2025",
    "delivery": "in person",
    "status": "open",
    "latitude": 52.536282,
    "longitude": 13.439211,
    "address": "191 Berlin Rd, Berlin, Germany"
  },
  {
    "name": "New Bridge",
    "type": "Sports Bar",
    "start": "04/08/2025",
    "delivery": "in person",
    "status": "open",
    "latitude": 53.343654,
    "longitude": -6.217479,
    "address": "942 Dublin Rd, Dublin, Ireland"
  },
  {
    "name": "White Anchor",
    "type": "Rooftop Bar",
    "start": "10/09/2025",
    "delivery": "in person",
    "status": "open",
    "latitude": 53.367325,
    "longitude": -6.239758,
    "address": "77 Dublin Rd, Dublin, Ireland"
  },
  {
    "name": "Silver Anchor",
    "type": "Rooftop Bar",
    "start": "13/08/2025",
    "delivery": "in person",
    "status": "open",
    "latitude": 51.510922,
    "longitude": -0.080055,
    "address": "819 London Rd, London, United Kingdom"
  },
  {
    "name": "Black Fox",
    "type": "Brewpub",
    "start": "19/08/2025",
    "delivery": "in person",
    "status": "open",
    "latitude": 40.433996,
    "longitude": -3.71395,
    "address": "678 Madrid Rd, Madrid, Spain"
  },
  {
    "name": "Queen's Lion",
    "type": "Rooftop Bar",
    "start": "05/09/2025",
    "delivery": "in person",
    "status": "open",
    "latitude": 40.37402,
    "longitude": -3.749041,
    "address": "850 Madrid Rd, Madrid, Spain"
  },
  {
    "name": "New Hound",
    "type": "Traditional Pub",
    "start": "27/08/2025",
    "delivery": "in person",
    "status": "open",
    "latitude": 53.379991,
    "longitude": -6.292992,
    "address": "173 Dublin Rd, Dublin, Ireland"
  },
  {
    "name": "New Crown",
    "type": "Traditional Pub",
    "start": "26/07/2025",
    "delivery": "in person",
    "status": "open",
    "latitude": 35.730385,
    "longitude": 139.656468,
    "address": "633 Tokyo Rd, Tokyo, Japan"
  },
  {
    "name": "Black Swan",
    "type": "Brewpub",
    "start": "17/08/2025",
    "delivery": "in person",
    "status": "open",
    "latitude": 51.525171,
    "longitude": -0.124094,
    "address": "92 London Rd, London, United Kingdom"
  },
  {
    "name": "White Bridge",
    "type": "Cocktail Bar",
    "start": "26/07/2025",
    "delivery": "in person",
    "status": "open",
    "latitude": 40.399233,
    "longitude": -3.699194,
    "address": "918 Madrid Rd, Madrid, Spain"
  },
  {
    "name": "White Tavern",
    "type": "Beach Bar",
    "start": "09/08/2025",
    "delivery": "in person",
    "status": "open",
    "latitude": 35.721485,
    "longitude": 139.672699,
    "address": "563 Tokyo Rd, Tokyo, Japan"
  },
  {
    "name": "The Hound",
    "type": "Lounge",
    "start": "17/09/2025",
    "delivery": "in person",
    "status": "open",
    "latitude": 40.448942,
    "longitude": -3.712276,
    "address": "399 Madrid Rd, Madrid, Spain"
  },
  {
    "name": "Old Bridge",
    "type": "Sports Bar",
    "start": "15/08/2025",
    "delivery": "in person",
    "status": "open",
    "latitude": 48.903393,
    "longitude": 2.39057,
    "address": "48 Paris Rd, Paris, France"
  },
  {
    "name": "Golden Fox",
    "type": "Tapas Bar",
    "start": "10/09/2025",
    "delivery": "in person",
    "status": "open",
    "latitude": 40.431889,
    "longitude": -3.729635,
    "address": "889 Madrid Rd, Madrid, Spain"
  },
  {
    "name": "New Lion",
    "type": "Rooftop Bar",
    "start": "02/08/2025",
    "delivery": "in person",
    "status": "open",
    "latitude": 48.875765,
    "longitude": 2.371227,
    "address": "289 Paris Rd, Paris, France"
  },
  {
    "name": "The Tavern",
    "type": "Sports Bar",
    "start": "06/09/2025",
    "delivery": "in person",
    "status": "open",
    "latitude": 48.845441,
    "longitude": 2.357027,
    "address": "773 Paris Rd, Paris, France"
  },
  {
    "name": "New Crown",
    "type": "Brewpub",
    "start": "04/09/2025",
    "delivery": "in person",
    "status": "open",
    "latitude": -33.871613,
    "longitude": 151.185604,
    "address": "210 Sydney Rd, Sydney, Australia"
  },
  {
    "name": "Black Tavern",
    "type": "Tapas Bar",
    "start": "12/09/2025",
    "delivery": "in person",
    "status": "open",
    "latitude": 48.822505,
    "longitude": 2.397212,
    "address": "897 Paris Rd, Paris, France"
  },
  {
    "name": "White Horse",
    "type": "Lounge",
    "start": "27/07/2025",
    "delivery": "in person",
    "status": "open",
    "latitude": -33.913946,
    "longitude": 151.241153,
    "address": "529 Sydney Rd, Sydney, Australia"
  },
  {
    "name": "King's Lion",
    "type": "Tapas Bar",
    "start": "26/07/2025",
    "delivery": "in person",
    "status": "open",
    "latitude": 40.433423,
    "longitude": -3.70245,
    "address": "885 Madrid Rd, Madrid, Spain"
  },
  {
    "name": "King's Crown",
    "type": "Traditional Pub",
    "start": "15/09/2025",
    "delivery": "in person",
    "status": "open",
    "latitude": 40.673348,
    "longitude": -73.978116,
    "address": "83 New York Rd, New York, United States"
  },
  {
    "name": "Queen's Bridge",
    "type": "Beer Hall",
    "start": "07/09/2025",
    "delivery": "in person",
    "status": "open",
    "latitude": 35.663525,
    "longitude": 139.658253,
    "address": "786 Tokyo Rd, Tokyo, Japan"
  },
  {
    "name": "Silver Fox",
    "type": "Lounge",
    "start": "04/09/2025",
    "delivery": "in person",
    "status": "open",
    "latitude": 43.683538,
    "longitude": -79.394977,
    "address": "428 Toronto Rd, Toronto, Canada"
  },
  {
    "name": "New Horse",
    "type": "Traditional Pub",
    "start": "01/09/2025",
    "delivery": "in person",
    "status": "open",
    "latitude": -33.970651,
    "longitude": 18.446963,
    "address": "372 Cape Town Rd, Cape Town, South Africa"
  },
  {
    "name": "Old Swan",
    "type": "Brewpub",
    "start": "03/09/2025",
    "delivery": "in person",
    "status": "open",
    "latitude": 40.461327,
    "longitude": -3.720125,
    "address": "262 Madrid Rd, Madrid, Spain"
  },
  {
    "name": "Black Horse",
    "type": "Beach Bar",
    "start": "12/08/2025",
    "delivery": "in person",
    "status": "open",
    "latitude": -33.953015,
    "longitude": 18.443164,
    "address": "651 Cape Town Rd, Cape Town, South Africa"
  },
  {
    "name": "Old Swan",
    "type": "Sports Bar",
    "start": "21/07/2025",
    "delivery": "in person",
    "status": "open",
    "latitude": 40.453491,
    "longitude": -3.656527,
    "address": "894 Madrid Rd, Madrid, Spain"
  },
  {
    "name": "Old Barrel",
    "type": "Beach Bar",
    "start": "24/07/2025",
    "delivery": "in person",
    "status": "open",
    "latitude": 40.430739,
    "longitude": -3.745663,
    "address": "984 Madrid Rd, Madrid, Spain"
  },
  {
    "name": "Black Hound",
    "type": "Beach Bar",
    "start": "17/08/2025",
    "delivery": "in person",
    "status": "open",
    "latitude": 35.673328,
    "longitude": 139.680484,
    "address": "16 Tokyo Rd, Tokyo, Japan"
  },
  {
    "name": "Old Lion",
    "type": "Beer Hall",
    "start": "14/08/2025",
    "delivery": "in person",
    "status": "open",
    "latitude": 40.374902,
    "longitude": -3.684554,
    "address": "348 Madrid Rd, Madrid, Spain"
  },
  {
    "name": "The Tavern",
    "type": "Traditional Pub",
    "start": "22/08/2025",
    "delivery": "in person",
    "status": "open",
    "latitude": -33.880537,
    "longitude": 151.20425,
    "address": "797 Sydney Rd, Sydney, Australia"
  },
  {
    "name": "Queen's Hound",
    "type": "Rooftop Bar",
    "start": "04/08/2025",
    "delivery": "in person",
    "status": "open",
    "latitude": 40.729624,
    "longitude": -74.041796,
    "address": "956 New York Rd, New York, United States"
  },
  {
    "name": "The Hound",
    "type": "Beach Bar",
    "start": "23/07/2025",
    "delivery": "in person",
    "status": "open",
    "latitude": 40.374692,
    "longitude": -3.670932,
    "address": "240 Madrid Rd, Madrid, Spain"
  },
  {
    "name": "King's Swan",
    "type": "Rooftop Bar",
    "start": "11/08/2025",
    "delivery": "in person",
    "status": "open",
    "latitude": 48.85139,
    "longitude": 2.337674,
    "address": "790 Paris Rd, Paris, France"
  },
  {
    "name": "The Tavern",
    "type": "Cocktail Bar",
    "start": "28/08/2025",
    "delivery": "in person",
    "status": "open",
    "latitude": 48.840132,
    "longitude": 2.365493,
    "address": "93 Paris Rd, Paris, France"
  },
  {
    "name": "Queen's Anchor",
    "type": "Sports Bar",
    "start": "26/08/2025",
    "delivery": "in person",
    "status": "open",
    "latitude": -33.847122,
    "longitude": 151.170647,
    "address": "172 Sydney Rd, Sydney, Australia"
  },
  {
    "name": "Red Hound",
    "type": "Rooftop Bar",
    "start": "28/08/2025",
    "delivery": "in person",
    "status": "open",
    "latitude": 35.722548,
    "longitude": 139.642861,
    "address": "132 Tokyo Rd, Tokyo, Japan"
  },
  {
    "name": "Black Barrel",
    "type": "Sports Bar",
    "start": "02/08/2025",
    "delivery": "in person",
    "status": "open",
    "latitude": 52.518514,
    "longitude": 13.361735,
    "address": "499 Berlin Rd, Berlin, Germany"
  },
  {
    "name": "Golden Barrel",
    "type": "Beer Hall",
    "start": "12/08/2025",
    "delivery": "in person",
    "status": "open",
    "latitude": 52.513023,
    "longitude": 13.399807,
    "address": "162 Berlin Rd, Berlin, Germany"
  },
  {
    "name": "Red Bridge",
    "type": "Wine Bar",
    "start": "02/08/2025",
    "delivery": "in person",
    "status": "open",
    "latitude": 51.519725,
    "longitude": -0.089585,
    "address": "617 London Rd, London, United Kingdom"
  },
  {
    "name": "Queen's Lion",
    "type": "Rooftop Bar",
    "start": "15/09/2025",
    "delivery": "in person",
    "status": "open",
    "latitude": -33.925436,
    "longitude": 18.469706,
    "address": "701 Cape Town Rd, Cape Town, South Africa"
  },
  {
    "name": "King's Crown",
    "type": "Beer Hall",
    "start": "20/08/2025",
    "delivery": "in person",
    "status": "open",
    "latitude": -33.890265,
    "longitude": 151.161771,
    "address": "851 Sydney Rd, Sydney, Australia"
  },
  {
    "name": "White Fox",
    "type": "Beach Bar",
    "start": "24/08/2025",
    "delivery": "in person",
    "status": "open",
    "latitude": 52.504467,
    "longitude": 13.453563,
    "address": "899 Berlin Rd, Berlin, Germany"
  },
  {
    "name": "The Hound",
    "type": "Cocktail Bar",
    "start": "31/07/2025",
    "delivery": "in person",
    "status": "open",
    "latitude": 35.706918,
    "longitude": 139.708832,
    "address": "166 Tokyo Rd, Tokyo, Japan"
  },
  {
    "name": "New Hound",
    "type": "Beer Hall",
    "start": "22/08/2025",
    "delivery": "in person",
    "status": "open",
    "latitude": 48.84121,
    "longitude": 2.386491,
    "address": "394 Paris Rd, Paris, France"
  },
  {
    "name": "Queen's Fox",
    "type": "Beach Bar",
    "start": "14/08/2025",
    "delivery": "in person",
    "status": "open",
    "latitude": 51.550343,
    "longitude": -0.102867,
    "address": "10 London Rd, London, United Kingdom"
  },
  {
    "name": "Old Hound",
    "type": "Rooftop Bar",
    "start": "24/07/2025",
    "delivery": "in person",
    "status": "open",
    "latitude": 43.652625,
    "longitude": -79.410018,
    "address": "882 Toronto Rd, Toronto, Canada"
  },
  {
    "name": "King's Swan",
    "type": "Wine Bar",
    "start": "28/07/2025",
    "delivery": "in person",
    "status": "open",
    "latitude": 35.686698,
    "longitude": 139.661041,
    "address": "668 Tokyo Rd, Tokyo, Japan"
  },
  {
    "name": "Old Tavern",
    "type": "Rooftop Bar",
    "start": "27/07/2025",
    "delivery": "in person",
    "status": "open",
    "latitude": 43.645858,
    "longitude": -79.433189,
    "address": "325 Toronto Rd, Toronto, Canada"
  },
  {
    "name": "King's Horse",
    "type": "Brewpub",
    "start": "08/09/2025",
    "delivery": "in person",
    "status": "open",
    "latitude": 40.389542,
    "longitude": -3.694559,
    "address": "915 Madrid Rd, Madrid, Spain"
  },
  {
    "name": "Silver Horse",
    "type": "Sports Bar",
    "start": "11/08/2025",
    "delivery": "in person",
    "status": "open",
    "latitude": 40.378245,
    "longitude": -3.722641,
    "address": "968 Madrid Rd, Madrid, Spain"
  },
  {
    "name": "King's Bridge",
    "type": "Tapas Bar",
    "start": "04/08/2025",
    "delivery": "in person",
    "status": "open",
    "latitude": 48.810105,
    "longitude": 2.321299,
    "address": "475 Paris Rd, Paris, France"
  },
  {
    "name": "New Lion",
    "type": "Brewpub",
    "start": "30/07/2025",
    "delivery": "in person",
    "status": "open",
    "latitude": 35.646098,
    "longitude": 139.711135,
    "address": "870 Tokyo Rd, Tokyo, Japan"
  },
  {
    "name": "Silver Barrel",
    "type": "Brewpub",
    "start": "03/08/2025",
    "delivery": "in person",
    "status": "open",
    "latitude": 40.665545,
    "longitude": -73.989639,
    "address": "514 New York Rd, New York, United States"
  },
  {
    "name": "Silver Lion",
    "type": "Traditional Pub",
    "start": "19/07/2025",
    "delivery": "in person",
    "status": "open",
    "latitude": 53.375344,
    "longitude": -6.267081,
    "address": "648 Dublin Rd, Dublin, Ireland"
  },
  {
    "name": "Black Hound",
    "type": "Wine Bar",
    "start": "12/08/2025",
    "delivery": "in person",
    "status": "open",
    "latitude": 51.544805,
    "longitude": -0.14234,
    "address": "556 London Rd, London, United Kingdom"
  },
  {
    "name": "White Swan",
    "type": "Rooftop Bar",
    "start": "13/09/2025",
    "delivery": "in person",
    "status": "open",
    "latitude": 40.396253,
    "longitude": -3.727435,
    "address": "526 Madrid Rd, Madrid, Spain"
  },
  {
    "name": "Golden Fox",
    "type": "Cocktail Bar",
    "start": "06/08/2025",
    "delivery": "in person",
    "status": "open",
    "latitude": 51.550191,
    "longitude": -0.140565,
    "address": "835 London Rd, London, United Kingdom"
  },
  {
    "name": "Old Tavern",
    "type": "Brewpub",
    "start": "13/08/2025",
    "delivery": "in person",
    "status": "open",
    "latitude": 51.483333,
    "longitude": -0.168136,
    "address": "366 London Rd, London, United Kingdom"
  },
  {
    "name": "Silver Barrel",
    "type": "Wine Bar",
    "start": "05/08/2025",
    "delivery": "in person",
    "status": "open",
    "latitude": 48.813735,
    "longitude": 2.386612,
    "address": "519 Paris Rd, Paris, France"
  },
  {
    "name": "Silver Hound",
    "type": "Brewpub",
    "start": "21/07/2025",
    "delivery": "in person",
    "status": "open",
    "latitude": 43.621768,
    "longitude": -79.361462,
    "address": "982 Toronto Rd, Toronto, Canada"
  },
  {
    "name": "King's Anchor",
    "type": "Lounge",
    "start": "25/08/2025",
    "delivery": "in person",
    "status": "open",
    "latitude": 43.640574,
    "longitude": -79.345634,
    "address": "760 Toronto Rd, Toronto, Canada"
  },
  {
    "name": "Silver Horse",
    "type": "Tapas Bar",
    "start": "23/08/2025",
    "delivery": "in person",
    "status": "open",
    "latitude": 40.701574,
    "longitude": -74.020376,
    "address": "463 New York Rd, New York, United States"
  },
  {
    "name": "Red Swan",
    "type": "Sports Bar",
    "start": "09/09/2025",
    "delivery": "in person",
    "status": "open",
    "latitude": 35.713902,
    "longitude": 139.655388,
    "address": "798 Tokyo Rd, Tokyo, Japan"
  },
  {
    "name": "White Lion",
    "type": "Brewpub",
    "start": "14/08/2025",
    "delivery": "in person",
    "status": "open",
    "latitude": -33.84223,
    "longitude": 151.21335,
    "address": "209 Sydney Rd, Sydney, Australia"
  },
  {
    "name": "The Barrel",
    "type": "Sports Bar",
    "start": "29/08/2025",
    "delivery": "in person",
    "status": "open",
    "latitude": 40.40526,
    "longitude": -3.664042,
    "address": "346 Madrid Rd, Madrid, Spain"
  },
  {
    "name": "Red Barrel",
    "type": "Sports Bar",
    "start": "25/08/2025",
    "delivery": "in person",
    "status": "open",
    "latitude": 51.542144,
    "longitude": -0.151788,
    "address": "490 London Rd, London, United Kingdom"
  },
  {
    "name": "King's Swan",
    "type": "Beer Hall",
    "start": "19/07/2025",
    "delivery": "in person",
    "status": "open",
    "latitude": 53.305166,
    "longitude": -6.253022,
    "address": "189 Dublin Rd, Dublin, Ireland"
  },
  {
    "name": "New Bridge",
    "type": "Traditional Pub",
    "start": "27/08/2025",
    "delivery": "in person",
    "status": "open",
    "latitude": 48.829961,
    "longitude": 2.333217,
    "address": "845 Paris Rd, Paris, France"
  },
  {
    "name": "New Swan",
    "type": "Rooftop Bar",
    "start": "23/07/2025",
    "delivery": "in person",
    "status": "open",
    "latitude": 48.821609,
    "longitude": 2.363167,
    "address": "465 Paris Rd, Paris, France"
  },
  {
    "name": "King's Tavern",
    "type": "Cocktail Bar",
    "start": "08/09/2025",
    "delivery": "in person",
    "status": "open",
    "latitude": 51.520249,
    "longitude": -0.154638,
    "address": "963 London Rd, London, United Kingdom"
  },
  {
    "name": "Old Hound",
    "type": "Rooftop Bar",
    "start": "02/09/2025",
    "delivery": "in person",
    "status": "open",
    "latitude": 51.529186,
    "longitude": -0.17294,
    "address": "487 London Rd, London, United Kingdom"
  },
  {
    "name": "King's Swan",
    "type": "Rooftop Bar",
    "start": "21/08/2025",
    "delivery": "in person",
    "status": "open",
    "latitude": -33.880482,
    "longitude": 151.252382,
    "address": "762 Sydney Rd, Sydney, Australia"
  },
  {
    "name": "The Lion",
    "type": "Beer Hall",
    "start": "25/07/2025",
    "delivery": "in person",
    "status": "open",
    "latitude": 53.364548,
    "longitude": -6.271954,
    "address": "156 Dublin Rd, Dublin, Ireland"
  },
  {
    "name": "White Hound",
    "type": "Tapas Bar",
    "start": "12/08/2025",
    "delivery": "in person",
    "status": "open",
    "latitude": 40.456541,
    "longitude": -3.713235,
    "address": "218 Madrid Rd, Madrid, Spain"
  },
  {
    "name": "Silver Crown",
    "type": "Tapas Bar",
    "start": "19/08/2025",
    "delivery": "in person",
    "status": "open",
    "latitude": 51.524807,
    "longitude": -0.108284,
    "address": "15 London Rd, London, United Kingdom"
  },
  {
    "name": "Black Bridge",
    "type": "Cocktail Bar",
    "start": "13/09/2025",
    "delivery": "in person",
    "status": "open",
    "latitude": 35.668885,
    "longitude": 139.707313,
    "address": "60 Tokyo Rd, Tokyo, Japan"
  },
  {
    "name": "White Fox",
    "type": "Brewpub",
    "start": "13/09/2025",
    "delivery": "in person",
    "status": "open",
    "latitude": 40.690778,
    "longitude": -74.031109,
    "address": "250 New York Rd, New York, United States"
  },
  {
    "name": "White Crown",
    "type": "Rooftop Bar",
    "start": "29/07/2025",
    "delivery": "in person",
    "status": "open",
    "latitude": 43.638155,
    "longitude": -79.369914,
    "address": "362 Toronto Rd, Toronto, Canada"
  },
  {
    "name": "Queen's Crown",
    "type": "Wine Bar",
    "start": "22/07/2025",
    "delivery": "in person",
    "status": "open",
    "latitude": 43.701608,
    "longitude": -79.360095,
    "address": "208 Toronto Rd, Toronto, Canada"
  },
  {
    "name": "Red Hound",
    "type": "Traditional Pub",
    "start": "13/09/2025",
    "delivery": "in person",
    "status": "open",
    "latitude": 43.688451,
    "longitude": -79.341298,
    "address": "325 Toronto Rd, Toronto, Canada"
  },
  {
    "name": "Silver Lion",
    "type": "Sports Bar",
    "start": "25/07/2025",
    "delivery": "in person",
    "status": "open",
    "latitude": 35.72043,
    "longitude": 139.719054,
    "address": "594 Tokyo Rd, Tokyo, Japan"
  },
  {
    "name": "Black Lion",
    "type": "Wine Bar",
    "start": "01/08/2025",
    "delivery": "in person",
    "status": "open",
    "latitude": 35.642086,
    "longitude": 139.690432,
    "address": "357 Tokyo Rd, Tokyo, Japan"
  },
  {
    "name": "Black Hound",
    "type": "Tapas Bar",
    "start": "11/09/2025",
    "delivery": "in person",
    "status": "open",
    "latitude": -33.882699,
    "longitude": 151.162195,
    "address": "964 Sydney Rd, Sydney, Australia"
  },
  {
    "name": "Silver Tavern",
    "type": "Brewpub",
    "start": "28/07/2025",
    "delivery": "in person",
    "status": "open",
    "latitude": 43.682209,
    "longitude": -79.333892,
    "address": "830 Toronto Rd, Toronto, Canada"
  },
  {
    "name": "Old Lion",
    "type": "Tapas Bar",
    "start": "21/08/2025",
    "delivery": "in person",
    "status": "open",
    "latitude": 40.395338,
    "longitude": -3.70578,
    "address": "716 Madrid Rd, Madrid, Spain"
  },
  {
    "name": "Old Anchor",
    "type": "Beach Bar",
    "start": "26/08/2025",
    "delivery": "in person",
    "status": "open",
    "latitude": 40.717065,
    "longitude": -73.96256,
    "address": "657 New York Rd, New York, United States"
  },
  {
    "name": "King's Horse",
    "type": "Tapas Bar",
    "start": "08/09/2025",
    "delivery": "in person",
    "status": "open",
    "latitude": 48.853322,
    "longitude": 2.396275,
    "address": "771 Paris Rd, Paris, France"
  },
  {
    "name": "The Hound",
    "type": "Lounge",
    "start": "12/09/2025",
    "delivery": "in person",
    "status": "open",
    "latitude": 53.392711,
    "longitude": -6.23039,
    "address": "762 Dublin Rd, Dublin, Ireland"
  },
  {
    "name": "Golden Horse",
    "type": "Traditional Pub",
    "start": "07/08/2025",
    "delivery": "in person",
    "status": "open",
    "latitude": -33.962751,
    "longitude": 18.424498,
    "address": "290 Cape Town Rd, Cape Town, South Africa"
  },
  {
    "name": "Black Crown",
    "type": "Cocktail Bar",
    "start": "21/07/2025",
    "delivery": "in person",
    "status": "open",
    "latitude": 43.63462,
    "longitude": -79.39936,
    "address": "58 Toronto Rd, Toronto, Canada"
  },
  {
    "name": "Golden Horse",
    "type": "Beach Bar",
    "start": "17/09/2025",
    "delivery": "in person",
    "status": "open",
    "latitude": 40.736746,
    "longitude": -73.981734,
    "address": "393 New York Rd, New York, United States"
  },
  {
    "name": "Old Fox",
    "type": "Brewpub",
    "start": "15/08/2025",
    "delivery": "in person",
    "status": "open",
    "latitude": 43.650871,
    "longitude": -79.394654,
    "address": "221 Toronto Rd, Toronto, Canada"
  },
  {
    "name": "Red Horse",
    "type": "Tapas Bar",
    "start": "15/09/2025",
    "delivery": "in person",
    "status": "open",
    "latitude": 43.643248,
    "longitude": -79.404815,
    "address": "1 Toronto Rd, Toronto, Canada"
  },
  {
    "name": "King's Horse",
    "type": "Tapas Bar",
    "start": "17/08/2025",
    "delivery": "in person",
    "status": "open",
    "latitude": 43.619811,
    "longitude": -79.377804,
    "address": "910 Toronto Rd, Toronto, Canada"
  },
  {
    "name": "Silver Lion",
    "type": "Brewpub",
    "start": "19/07/2025",
    "delivery": "in person",
    "status": "open",
    "latitude": 52.487019,
    "longitude": 13.373998,
    "address": "437 Berlin Rd, Berlin, Germany"
  },
  {
    "name": "Old Bridge",
    "type": "Traditional Pub",
    "start": "03/08/2025",
    "delivery": "in person",
    "status": "open",
    "latitude": -33.887686,
    "longitude": 18.453845,
    "address": "867 Cape Town Rd, Cape Town, South Africa"
  },
  {
    "name": "Golden Bridge",
    "type": "Wine Bar",
    "start": "13/09/2025",
    "delivery": "in person",
    "status": "open",
    "latitude": 53.369219,
    "longitude": -6.262451,
    "address": "484 Dublin Rd, Dublin, Ireland"
  },
  {
    "name": "Red Tavern",
    "type": "Sports Bar",
    "start": "07/08/2025",
    "delivery": "in person",
    "status": "open",
    "latitude": 40.719277,
    "longitude": -73.993142,
    "address": "814 New York Rd, New York, United States"
  },
  {
    "name": "Silver Bridge",
    "type": "Lounge",
    "start": "24/08/2025",
    "delivery": "in person",
    "status": "open",
    "latitude": 51.468521,
    "longitude": -0.124475,
    "address": "311 London Rd, London, United Kingdom"
  },
  {
    "name": "Red Fox",
    "type": "Beer Hall",
    "start": "10/09/2025",
    "delivery": "in person",
    "status": "open",
    "latitude": 53.342726,
    "longitude": -6.256845,
    "address": "606 Dublin Rd, Dublin, Ireland"
  },
  {
    "name": "Red Swan",
    "type": "Wine Bar",
    "start": "12/08/2025",
    "delivery": "in person",
    "status": "open",
    "latitude": -33.912026,
    "longitude": 151.206926,
    "address": "672 Sydney Rd, Sydney, Australia"
  },
  {
    "name": "Old Hound",
    "type": "Beach Bar",
    "start": "16/09/2025",
    "delivery": "in person",
    "status": "open",
    "latitude": 40.672297,
    "longitude": -74.028472,
    "address": "329 New York Rd, New York, United States"
  },
  {
    "name": "The Fox",
    "type": "Wine Bar",
    "start": "22/07/2025",
    "delivery": "in person",
    "status": "open",
    "latitude": -33.837436,
    "longitude": 151.162686,
    "address": "612 Sydney Rd, Sydney, Australia"
  },
  {
    "name": "The Swan",
    "type": "Traditional Pub",
    "start": "04/09/2025",
    "delivery": "in person",
    "status": "open",
    "latitude": 43.606086,
    "longitude": -79.362456,
    "address": "573 Toronto Rd, Toronto, Canada"
  },
  {
    "name": "Silver Anchor",
    "type": "Tapas Bar",
    "start": "18/08/2025",
    "delivery": "in person",
    "status": "open",
    "latitude": 40.439345,
    "longitude": -3.712179,
    "address": "840 Madrid Rd, Madrid, Spain"
  },
  {
    "name": "Silver Lion",
    "type": "Beach Bar",
    "start": "14/08/2025",
    "delivery": "in person",
    "status": "open",
    "latitude": -33.900506,
    "longitude": 151.236541,
    "address": "918 Sydney Rd, Sydney, Australia"
  },
  {
    "name": "Old Hound",
    "type": "Wine Bar",
    "start": "02/09/2025",
    "delivery": "in person",
    "status": "open",
    "latitude": 52.566719,
    "longitude": 13.428487,
    "address": "182 Berlin Rd, Berlin, Germany"
  },
  {
    "name": "New Swan",
    "type": "Wine Bar",
    "start": "22/08/2025",
    "delivery": "in person",
    "status": "open",
    "latitude": 48.840222,
    "longitude": 2.334608,
    "address": "462 Paris Rd, Paris, France"
  },
  {
    "name": "Red Hound",
    "type": "Brewpub",
    "start": "25/08/2025",
    "delivery": "in person",
    "status": "open",
    "latitude": -33.920731,
    "longitude": 18.453482,
    "address": "372 Cape Town Rd, Cape Town, South Africa"
  },
  {
    "name": "Golden Fox",
    "type": "Brewpub",
    "start": "11/09/2025",
    "delivery": "in person",
    "status": "open",
    "latitude": 51.50887,
    "longitude": -0.080059,
    "address": "474 London Rd, London, United Kingdom"
  },
  {
    "name": "Silver Barrel",
    "type": "Tapas Bar",
    "start": "17/09/2025",
    "delivery": "in person",
    "status": "open",
    "latitude": 51.552695,
    "longitude": -0.141775,
    "address": "331 London Rd, London, United Kingdom"
  },
  {
    "name": "The Fox",
    "type": "Traditional Pub",
    "start": "30/08/2025",
    "delivery": "in person",
    "status": "open",
    "latitude": 52.483426,
    "longitude": 13.369789,
    "address": "836 Berlin Rd, Berlin, Germany"
  },
  {
    "name": "Silver Lion",
    "type": "Brewpub",
    "start": "26/07/2025",
    "delivery": "in person",
    "status": "open",
    "latitude": 40.697613,
    "longitude": -74.026327,
    "address": "68 New York Rd, New York, United States"
  },
  {
    "name": "Golden Lion",
    "type": "Cocktail Bar",
    "start": "20/08/2025",
    "delivery": "in person",
    "status": "open",
    "latitude": 43.630905,
    "longitude": -79.373692,
    "address": "19 Toronto Rd, Toronto, Canada"
  },
  {
    "name": "Silver Barrel",
    "type": "Wine Bar",
    "start": "23/08/2025",
    "delivery": "in person",
    "status": "open",
    "latitude": 53.304636,
    "longitude": -6.233917,
    "address": "942 Dublin Rd, Dublin, Ireland"
  },
  {
    "name": "Red Barrel",
    "type": "Beer Hall",
    "start": "12/09/2025",
    "delivery": "in person",
    "status": "open",
    "latitude": 40.451328,
    "longitude": -3.711787,
    "address": "973 Madrid Rd, Madrid, Spain"
  },
  {
    "name": "White Fox",
    "type": "Brewpub",
    "start": "18/08/2025",
    "delivery": "in person",
    "status": "open",
    "latitude": 43.605309,
    "longitude": -79.388615,
    "address": "800 Toronto Rd, Toronto, Canada"
  },
  {
    "name": "King's Hound",
    "type": "Lounge",
    "start": "27/07/2025",
    "delivery": "in person",
    "status": "open",
    "latitude": 53.325068,
    "longitude": -6.273914,
    "address": "262 Dublin Rd, Dublin, Ireland"
  },
  {
    "name": "The Swan",
    "type": "Tapas Bar",
    "start": "23/07/2025",
    "delivery": "in person",
    "status": "open",
    "latitude": 35.648707,
    "longitude": 139.718488,
    "address": "721 Tokyo Rd, Tokyo, Japan"
  },
  {
    "name": "Silver Barrel",
    "type": "Brewpub",
    "start": "31/08/2025",
    "delivery": "in person",
    "status": "open",
    "latitude": 51.47366,
    "longitude": -0.123824,
    "address": "259 London Rd, London, United Kingdom"
  },
  {
    "name": "The Horse",
    "type": "Beer Hall",
    "start": "10/08/2025",
    "delivery": "in person",
    "status": "open",
    "latitude": 48.814312,
    "longitude": 2.303673,
    "address": "90 Paris Rd, Paris, France"
  },
  {
    "name": "King's Swan",
    "type": "Beer Hall",
    "start": "22/08/2025",
    "delivery": "in person",
    "status": "open",
    "latitude": -33.918563,
    "longitude": 18.426836,
    "address": "795 Cape Town Rd, Cape Town, South Africa"
  },
  {
    "name": "Silver Fox",
    "type": "Traditional Pub",
    "start": "01/08/2025",
    "delivery": "in person",
    "status": "open",
    "latitude": 40.441716,
    "longitude": -3.73762,
    "address": "18 Madrid Rd, Madrid, Spain"
  },
  {
    "name": "White Hound",
    "type": "Traditional Pub",
    "start": "07/09/2025",
    "delivery": "in person",
    "status": "open",
    "latitude": -33.896707,
    "longitude": 151.245084,
    "address": "707 Sydney Rd, Sydney, Australia"
  },
  {
    "name": "Black Fox",
    "type": "Traditional Pub",
    "start": "10/08/2025",
    "delivery": "in person",
    "status": "open",
    "latitude": 51.529021,
    "longitude": -0.109516,
    "address": "73 London Rd, London, United Kingdom"
  },
  {
    "name": "New Lion",
    "type": "Tapas Bar",
    "start": "05/09/2025",
    "delivery": "in person",
    "status": "open",
    "latitude": 53.393662,
    "longitude": -6.25169,
    "address": "834 Dublin Rd, Dublin, Ireland"
  },
  {
    "name": "New Horse",
    "type": "Cocktail Bar",
    "start": "19/08/2025",
    "delivery": "in person",
    "status": "open",
    "latitude": 40.75295,
    "longitude": -73.964123,
    "address": "530 New York Rd, New York, United States"
  },
  {
    "name": "Old Crown",
    "type": "Sports Bar",
    "start": "06/09/2025",
    "delivery": "in person",
    "status": "open",
    "latitude": 52.51718,
    "longitude": 13.407988,
    "address": "253 Berlin Rd, Berlin, Germany"
  },
  {
    "name": "Black Swan",
    "type": "Traditional Pub",
    "start": "20/08/2025",
    "delivery": "in person",
    "status": "open",
    "latitude": 40.703047,
    "longitude": -73.956446,
    "address": "559 New York Rd, New York, United States"
  },
  {
    "name": "Golden Tavern",
    "type": "Beer Hall",
    "start": "06/08/2025",
    "delivery": "in person",
    "status": "open",
    "latitude": 40.736232,
    "longitude": -73.971766,
    "address": "88 New York Rd, New York, United States"
  },
  {
    "name": "New Crown",
    "type": "Beer Hall",
    "start": "10/08/2025",
    "delivery": "in person",
    "status": "open",
    "latitude": 51.532963,
    "longitude": -0.136975,
    "address": "843 London Rd, London, United Kingdom"
  },
  {
    "name": "Silver Fox",
    "type": "Wine Bar",
    "start": "19/07/2025",
    "delivery": "in person",
    "status": "open",
    "latitude": 40.693021,
    "longitude": -74.005694,
    "address": "505 New York Rd, New York, United States"
  },
  {
    "name": "The Lion",
    "type": "Traditional Pub",
    "start": "24/08/2025",
    "delivery": "in person",
    "status": "open",
    "latitude": 40.687934,
    "longitude": -74.019869,
    "address": "717 New York Rd, New York, United States"
  },
  {
    "name": "New Lion",
    "type": "Traditional Pub",
    "start": "04/08/2025",
    "delivery": "in person",
    "status": "open",
    "latitude": 35.656163,
    "longitude": 139.73092,
    "address": "496 Tokyo Rd, Tokyo, Japan"
  },
  {
    "name": "Black Anchor",
    "type": "Brewpub",
    "start": "02/09/2025",
    "delivery": "in person",
    "status": "open",
    "latitude": 52.562316,
    "longitude": 13.391166,
    "address": "37 Berlin Rd, Berlin, Germany"
  },
  {
    "name": "Old Hound",
    "type": "Beer Hall",
    "start": "20/08/2025",
    "delivery": "in person",
    "status": "open",
    "latitude": 51.548859,
    "longitude": -0.144105,
    "address": "12 London Rd, London, United Kingdom"
  },
  {
    "name": "White Lion",
    "type": "Traditional Pub",
    "start": "25/08/2025",
    "delivery": "in person",
    "status": "open",
    "latitude": 51.518881,
    "longitude": -0.128823,
    "address": "216 London Rd, London, United Kingdom"
  },
  {
    "name": "Silver Swan",
    "type": "Lounge",
    "start": "12/08/2025",
    "delivery": "in person",
    "status": "open",
    "latitude": 43.686926,
    "longitude": -79.407192,
    "address": "237 Toronto Rd, Toronto, Canada"
  },
  {
    "name": "King's Horse",
    "type": "Cocktail Bar",
    "start": "08/09/2025",
    "delivery": "in person",
    "status": "open",
    "latitude": 53.355152,
    "longitude": -6.250012,
    "address": "907 Dublin Rd, Dublin, Ireland"
  },
  {
    "name": "King's Fox",
    "type": "Beer Hall",
    "start": "21/07/2025",
    "delivery": "in person",
    "status": "open",
    "latitude": -33.960193,
    "longitude": 18.443595,
    "address": "241 Cape Town Rd, Cape Town, South Africa"
  },
  {
    "name": "Red Lion",
    "type": "Rooftop Bar",
    "start": "06/08/2025",
    "delivery": "in person",
    "status": "open",
    "latitude": -33.928358,
    "longitude": 18.446277,
    "address": "875 Cape Town Rd, Cape Town, South Africa"
  },
  {
    "name": "White Fox",
    "type": "Beach Bar",
    "start": "30/08/2025",
    "delivery": "in person",
    "status": "open",
    "latitude": 35.717574,
    "longitude": 139.708918,
    "address": "742 Tokyo Rd, Tokyo, Japan"
  },
  {
    "name": "White Horse",
    "type": "Beach Bar",
    "start": "18/08/2025",
    "delivery": "in person",
    "status": "open",
    "latitude": 52.477549,
    "longitude": 13.435947,
    "address": "948 Berlin Rd, Berlin, Germany"
  },
  {
    "name": "New Barrel",
    "type": "Tapas Bar",
    "start": "11/09/2025",
    "delivery": "in person",
    "status": "open",
    "latitude": -33.846948,
    "longitude": 151.166534,
    "address": "628 Sydney Rd, Sydney, Australia"
  },
  {
    "name": "Queen's Swan",
    "type": "Tapas Bar",
    "start": "26/08/2025",
    "delivery": "in person",
    "status": "open",
    "latitude": 40.747536,
    "longitude": -74.042032,
    "address": "539 New York Rd, New York, United States"
  },
  {
    "name": "Black Bridge",
    "type": "Wine Bar",
    "start": "02/08/2025",
    "delivery": "in person",
    "status": "open",
    "latitude": 51.462122,
    "longitude": -0.152462,
    "address": "314 London Rd, London, United Kingdom"
  },
  {
    "name": "Queen's Swan",
    "type": "Cocktail Bar",
    "start": "14/08/2025",
    "delivery": "in person",
    "status": "open",
    "latitude": -33.834768,
    "longitude": 151.204678,
    "address": "478 Sydney Rd, Sydney, Australia"
  },
  {
    "name": "Black Swan",
    "type": "Traditional Pub",
    "start": "16/09/2025",
    "delivery": "in person",
    "status": "open",
    "latitude": 43.651722,
    "longitude": -79.362176,
    "address": "97 Toronto Rd, Toronto, Canada"
  },
  {
    "name": "Black Fox",
    "type": "Tapas Bar",
    "start": "23/08/2025",
    "delivery": "in person",
    "status": "open",
    "latitude": 53.312051,
    "longitude": -6.304825,
    "address": "118 Dublin Rd, Dublin, Ireland"
  },
  {
    "name": "Queen's Crown",
    "type": "Traditional Pub",
    "start": "01/08/2025",
    "delivery": "in person",
    "status": "open",
    "latitude": -33.912945,
    "longitude": 151.163995,
    "address": "865 Sydney Rd, Sydney, Australia"
  },
  {
    "name": "Queen's Fox",
    "type": "Wine Bar",
    "start": "21/07/2025",
    "delivery": "in person",
    "status": "open",
    "latitude": 43.631196,
    "longitude": -79.385229,
    "address": "184 Toronto Rd, Toronto, Canada"
  },
  {
    "name": "White Fox",
    "type": "Sports Bar",
    "start": "30/08/2025",
    "delivery": "in person",
    "status": "open",
    "latitude": 43.680748,
    "longitude": -79.374771,
    "address": "317 Toronto Rd, Toronto, Canada"
  },
  {
    "name": "The Crown",
    "type": "Beer Hall",
    "start": "09/08/2025",
    "delivery": "in person",
    "status": "open",
    "latitude": -33.828395,
    "longitude": 151.233223,
    "address": "922 Sydney Rd, Sydney, Australia"
  },
  {
    "name": "White Barrel",
    "type": "Traditional Pub",
    "start": "22/08/2025",
    "delivery": "in person",
    "status": "open",
    "latitude": 43.6286,
    "longitude": -79.365478,
    "address": "860 Toronto Rd, Toronto, Canada"
  },
  {
    "name": "Old Swan",
    "type": "Traditional Pub",
    "start": "19/07/2025",
    "delivery": "in person",
    "status": "open",
    "latitude": 43.645937,
    "longitude": -79.39676,
    "address": "670 Toronto Rd, Toronto, Canada"
  },
  {
    "name": "New Bridge",
    "type": "Brewpub",
    "start": "06/09/2025",
    "delivery": "in person",
    "status": "open",
    "latitude": 43.635338,
    "longitude": -79.422415,
    "address": "465 Toronto Rd, Toronto, Canada"
  },
  {
    "name": "King's Anchor",
    "type": "Tapas Bar",
    "start": "08/08/2025",
    "delivery": "in person",
    "status": "open",
    "latitude": 40.439487,
    "longitude": -3.695092,
    "address": "350 Madrid Rd, Madrid, Spain"
  },
  {
    "name": "Black Bridge",
    "type": "Brewpub",
    "start": "25/08/2025",
    "delivery": "in person",
    "status": "open",
    "latitude": 35.733902,
    "longitude": 139.643442,
    "address": "586 Tokyo Rd, Tokyo, Japan"
  },
  {
    "name": "White Horse",
    "type": "Sports Bar",
    "start": "11/09/2025",
    "delivery": "in person",
    "status": "open",
    "latitude": -33.889318,
    "longitude": 18.418084,
    "address": "744 Cape Town Rd, Cape Town, South Africa"
  },
  {
    "name": "Golden Crown",
    "type": "Brewpub",
    "start": "25/07/2025",
    "delivery": "in person",
    "status": "open",
    "latitude": 48.866136,
    "longitude": 2.338382,
    "address": "200 Paris Rd, Paris, France"
  },
  {
    "name": "New Fox",
    "type": "Sports Bar",
    "start": "12/09/2025",
    "delivery": "in person",
    "status": "open",
    "latitude": 40.698427,
    "longitude": -73.976158,
    "address": "52 New York Rd, New York, United States"
  },
  {
    "name": "The Crown",
    "type": "Beach Bar",
    "start": "19/07/2025",
    "delivery": "in person",
    "status": "open",
    "latitude": 51.465218,
    "longitude": -0.116661,
    "address": "845 London Rd, London, United Kingdom"
  },
  {
    "name": "Golden Barrel",
    "type": "Sports Bar",
    "start": "21/07/2025",
    "delivery": "in person",
    "status": "open",
    "latitude": 43.640858,
    "longitude": -79.401438,
    "address": "90 Toronto Rd, Toronto, Canada"
  },
  {
    "name": "The Crown",
    "type": "Sports Bar",
    "start": "29/07/2025",
    "delivery": "in person",
    "status": "open",
    "latitude": 52.519948,
    "longitude": 13.368897,
    "address": "42 Berlin Rd, Berlin, Germany"
  },
  {
    "name": "Golden Swan",
    "type": "Brewpub",
    "start": "02/08/2025",
    "delivery": "in person",
    "status": "open",
    "latitude": 40.666189,
    "longitude": -74.012826,
    "address": "103 New York Rd, New York, United States"
  },
  {
    "name": "Old Barrel",
    "type": "Traditional Pub",
    "start": "26/07/2025",
    "delivery": "in person",
    "status": "open",
    "latitude": 52.524021,
    "longitude": 13.371831,
    "address": "723 Berlin Rd, Berlin, Germany"
  },
  {
    "name": "Golden Swan",
    "type": "Beer Hall",
    "start": "09/09/2025",
    "delivery": "in person",
    "status": "open",
    "latitude": 40.716662,
    "longitude": -74.027286,
    "address": "817 New York Rd, New York, United States"
  },
  {
    "name": "Black Hound",
    "type": "Wine Bar",
    "start": "10/09/2025",
    "delivery": "in person",
    "status": "open",
    "latitude": -33.932625,
    "longitude": 18.46573,
    "address": "237 Cape Town Rd, Cape Town, South Africa"
  },
  {
    "name": "Silver Bridge",
    "type": "Rooftop Bar",
    "start": "25/08/2025",
    "delivery": "in person",
    "status": "open",
    "latitude": 53.321588,
    "longitude": -6.300978,
    "address": "258 Dublin Rd, Dublin, Ireland"
  },
  {
    "name": "Red Hound",
    "type": "Cocktail Bar",
    "start": "19/08/2025",
    "delivery": "in person",
    "status": "open",
    "latitude": 52.477692,
    "longitude": 13.401094,
    "address": "805 Berlin Rd, Berlin, Germany"
  },
  {
    "name": "Red Hound",
    "type": "Cocktail Bar",
    "start": "18/08/2025",
    "delivery": "in person",
    "status": "open",
    "latitude": 53.325793,
    "longitude": -6.24378,
    "address": "958 Dublin Rd, Dublin, Ireland"
  },
  {
    "name": "Black Hound",
    "type": "Tapas Bar",
    "start": "09/08/2025",
    "delivery": "in person",
    "status": "open",
    "latitude": 52.550967,
    "longitude": 13.393195,
    "address": "323 Berlin Rd, Berlin, Germany"
  },
  {
    "name": "Old Anchor",
    "type": "Lounge",
    "start": "01/09/2025",
    "delivery": "in person",
    "status": "open",
    "latitude": 40.430121,
    "longitude": -3.744596,
    "address": "103 Madrid Rd, Madrid, Spain"
  },
  {
    "name": "Red Barrel",
    "type": "Rooftop Bar",
    "start": "11/08/2025",
    "delivery": "in person",
    "status": "open",
    "latitude": 40.706072,
    "longitude": -73.999281,
    "address": "713 New York Rd, New York, United States"
  },
  {
    "name": "Silver Lion",
    "type": "Tapas Bar",
    "start": "14/08/2025",
    "delivery": "in person",
    "status": "open",
    "latitude": 35.722598,
    "longitude": 139.682643,
    "address": "424 Tokyo Rd, Tokyo, Japan"
  },
  {
    "name": "Queen's Swan",
    "type": "Beach Bar",
    "start": "09/09/2025",
    "delivery": "in person",
    "status": "open",
    "latitude": 43.679864,
    "longitude": -79.338748,
    "address": "614 Toronto Rd, Toronto, Canada"
  },
  {
    "name": "Red Bridge",
    "type": "Rooftop Bar",
    "start": "30/08/2025",
    "delivery": "in person",
    "status": "open",
    "latitude": -33.910511,
    "longitude": 18.378937,
    "address": "394 Cape Town Rd, Cape Town, South Africa"
  },
  {
    "name": "Red Tavern",
    "type": "Beer Hall",
    "start": "12/08/2025",
    "delivery": "in person",
    "status": "open",
    "latitude": 51.485524,
    "longitude": -0.122703,
    "address": "190 London Rd, London, United Kingdom"
  },
  {
    "name": "Golden Fox",
    "type": "Sports Bar",
    "start": "09/09/2025",
    "delivery": "in person",
    "status": "open",
    "latitude": 51.499348,
    "longitude": -0.168274,
    "address": "86 London Rd, London, United Kingdom"
  },
  {
    "name": "King's Hound",
    "type": "Sports Bar",
    "start": "14/09/2025",
    "delivery": "in person",
    "status": "open",
    "latitude": 35.712124,
    "longitude": 139.730661,
    "address": "140 Tokyo Rd, Tokyo, Japan"
  },
  {
    "name": "Black Bridge",
    "type": "Wine Bar",
    "start": "29/07/2025",
    "delivery": "in person",
    "status": "open",
    "latitude": 35.722244,
    "longitude": 139.65477,
    "address": "21 Tokyo Rd, Tokyo, Japan"
  },
  {
    "name": "White Barrel",
    "type": "Wine Bar",
    "start": "22/08/2025",
    "delivery": "in person",
    "status": "open",
    "latitude": -33.888892,
    "longitude": 18.462192,
    "address": "976 Cape Town Rd, Cape Town, South Africa"
  },
  {
    "name": "King's Lion",
    "type": "Tapas Bar",
    "start": "13/08/2025",
    "delivery": "in person",
    "status": "open",
    "latitude": 35.719281,
    "longitude": 139.694454,
    "address": "182 Tokyo Rd, Tokyo, Japan"
  },
  {
    "name": "Black Hound",
    "type": "Sports Bar",
    "start": "01/08/2025",
    "delivery": "in person",
    "status": "open",
    "latitude": -33.882975,
    "longitude": 151.223246,
    "address": "58 Sydney Rd, Sydney, Australia"
  },
  {
    "name": "Old Tavern",
    "type": "Cocktail Bar",
    "start": "30/08/2025",
    "delivery": "in person",
    "status": "open",
    "latitude": 40.709645,
    "longitude": -73.995766,
    "address": "702 New York Rd, New York, United States"
  },
  {
    "name": "Golden Barrel",
    "type": "Sports Bar",
    "start": "01/08/2025",
    "delivery": "in person",
    "status": "open",
    "latitude": 35.645647,
    "longitude": 139.64542,
    "address": "201 Tokyo Rd, Tokyo, Japan"
  },
  {
    "name": "Red Crown",
    "type": "Rooftop Bar",
    "start": "02/08/2025",
    "delivery": "in person",
    "status": "open",
    "latitude": 52.515462,
    "longitude": 13.404556,
    "address": "131 Berlin Rd, Berlin, Germany"
  }
]
