[
  {
    "iata": "AAL",
    "timezone": "Europe/Copenhagen",
    "country": "Denmark",
    "state": "North-Denmark",
    "city": "Aalborg",
    "latitude": 57.09275891,
    "longitude": 9.849243164,
    "c2": "DK",
    "c3": "DNK"
  },
  {
    "iata": "ABQ",
    "timezone": "America/Denver",
    "country": "United States",
    "state": "New Mexico",
    "city": "Albuquerque",
    "latitude": 35.04019928,
    "longitude": -106.6090012,
    "c2": "US",
    "c3": "USA"
  },
  {
    "iata": "ABV",
    "timezone": "Africa/Lagos",
    "country": "Nigeria",
    "state": "FCT",
    "city": "Abuja",
    "latitude": 9.006790161,
    "longitude": 7.263169766,
    "c2": "NG",
    "c3": "NGA"
  },
  {
    "iata": "ABZ",
    "timezone": "Europe/London",
    "country": "United Kingdom",
    "state": "Scotland",
    "city": "Aberdeen",
    "latitude": 57.20190048,
    "longitude": -2.197779894,
    "c2": "GB",
    "c3": "GBR"
  },
  {
    "iata": "ACA",
    "timezone": "America/Mexico_City",
    "country": "Mexico",
    "state": "Guerrero",
    "city": "Acapulco",
    "latitude": 16.75709915,
    "longitude": -99.7539978,
    "c2": "MX",
    "c3": "MEX"
  },
  {
    "iata": "ACC",
    "timezone": "Africa/Accra",
    "country": "Ghana",
    "state": "",
    "city": "Accra",
    "latitude": 5.6051898,
    "longitude": -0.1667860001,
    "c2": "GH",
    "c3": "GHA"
  },
  {
    "iata": "ADA",
    "timezone": "Europe/Istanbul",
    "country": "Turkey",
    "state": "Adana",
    "city": "Adana",
    "latitude": 36.98220062,
    "longitude": 35.28039932,
    "c2": "TR",
    "c3": "TUR"
  },
  {
    "iata": "ADB",
    "timezone": "Europe/Istanbul",
    "country": "Turkey",
    "state": "Izmir",
    "city": "Izmir",
    "latitude": 38.29240036,
    "longitude": 27.15699959,
    "c2": "TR",
    "c3": "TUR"
  },
  {
    "iata": "ADW",
    "timezone": "America/New_York",
    "country": "United States",
    "state": "Maryland",
    "city": "Camp Springs",
    "latitude": 38.81079865,
    "longitude": -76.86699677,
    "c2": "US",
    "c3": "USA"
  },
  {
    "iata": "AER",
    "timezone": "Europe/Moscow",
    "country": "Russia",
    "state": "Krasnodarskiy",
    "city": "Sochi",
    "latitude": 43.44990158,
    "longitude": 39.95660019,
    "c2": "RO",
    "c3": "ROU"
  },
  {
    "iata": "AFW",
    "timezone": "America/Chicago",
    "country": "United States",
    "state": "Texas",
    "city": "Fort Worth",
    "latitude": 32.98759842,
    "longitude": -97.31880188,
    "c2": "US",
    "c3": "USA"
  },
  {
    "iata": "AGP",
    "timezone": "Europe/Madrid",
    "country": "Spain",
    "state": "Andalusia",
    "city": "Malaga",
    "latitude": 36.67490005,
    "longitude": -4.499110222,
    "c2": "ES",
    "c3": "ESP"
  },
  {
    "iata": "AGS",
    "timezone": "America/New_York",
    "country": "United States",
    "state": "Georgia",
    "city": "Augusta",
    "latitude": 33.36989975,
    "longitude": -81.96450043,
    "c2": "US",
    "c3": "USA"
  },
  {
    "iata": "AKL",
    "timezone": "Pacific/Auckland",
    "country": "New Zealand",
    "state": "Auckland",
    "city": "Auckland",
    "latitude": -37.0080986,
    "longitude": 174.7920074,
    "c2": "NZ",
    "c3": "NZL"
  },
  {
    "iata": "ALA",
    "timezone": "Asia/Almaty",
    "country": "Kazakhstan",
    "state": "Almaty-Oblysy",
    "city": "Almaty",
    "latitude": 43.35210037,
    "longitude": 77.04049683,
    "c2": "KZ",
    "c3": "KAZ"
  },
  {
    "iata": "ALC",
    "timezone": "Europe/Madrid",
    "country": "Spain",
    "state": "Valencia",
    "city": "Alicante",
    "latitude": 38.28219986,
    "longitude": -0.5581560135,
    "c2": "ES",
    "c3": "ESP"
  },
  {
    "iata": "ALG",
    "timezone": "Africa/Algiers",
    "country": "Algeria",
    "state": "Algiers",
    "city": "Algiers",
    "latitude": 36.69100189,
    "longitude": 3.215409994,
    "c2": "DZ",
    "c3": "DZA"
  },
  {
    "iata": "ALP",
    "timezone": "Asia/Damascus",
    "country": "Syria",
    "state": "Aleppo",
    "city": "Aleppo",
    "latitude": 36.18069839,
    "longitude": 37.22439957,
    "c2": "CH",
    "c3": "CHE"
  },
  {
    "iata": "AMA",
    "timezone": "America/Chicago",
    "country": "United States",
    "state": "Texas",
    "city": "Amarillo",
    "latitude": 35.2193985,
    "longitude": -101.7060013,
    "c2": "US",
    "c3": "USA"
  },
  {
    "iata": "AMC",
    "timezone": "Africa/Ndjamena",
    "country": "Chad",
    "state": "Salamat",
    "city": "Am Timan",
    "latitude": 11.0340004,
    "longitude": 20.27400017,
    "c2": "TD",
    "c3": "TCD"
  },
  {
    "iata": "AMM",
    "timezone": "Asia/Amman",
    "country": "Jordan",
    "state": "Amman",
    "city": "Amman",
    "latitude": 31.72260094,
    "longitude": 35.99319839,
    "c2": "JO",
    "c3": "JOR"
  },
  {
    "iata": "AMS",
    "timezone": "Europe/Amsterdam",
    "country": "Netherlands",
    "state": "North-Holland",
    "city": "Amsterdam",
    "latitude": 52.30860138,
    "longitude": 4.76388979,
    "c2": "NL",
    "c3": "NLD"
  },
  {
    "iata": "ANC",
    "timezone": "America/Anchorage",
    "country": "United States",
    "state": "Alaska",
    "city": "Anchorage",
    "latitude": 61.17440033,
    "longitude": -149.9960022,
    "c2": "US",
    "c3": "USA"
  },
  {
    "iata": "ARN",
    "timezone": "Europe/Stockholm",
    "country": "Sweden",
    "state": "Stockholm",
    "city": "Stockholm",
    "latitude": 59.65190125,
    "longitude": 17.91860008,
    "c2": "SE",
    "c3": "SWE"
  },
  {
    "iata": "ATH",
    "timezone": "Europe/Athens",
    "country": "Greece",
    "state": "Attica",
    "city": "Athens",
    "latitude": 37.93640137,
    "longitude": 23.94449997,
    "c2": "GR",
    "c3": "GRC"
  },
  {
    "iata": "ATL",
    "timezone": "America/New_York",
    "country": "United States",
    "state": "Georgia",
    "city": "Atlanta",
    "latitude": 33.63669968,
    "longitude": -84.42810059,
    "c2": "US",
    "c3": "USA"
  },
  {
    "iata": "ATQ",
    "timezone": "Asia/Kolkata",
    "country": "India",
    "state": "Punjab",
    "city": "Amritsar",
    "latitude": 31.70960045,
    "longitude": 74.79730225,
    "c2": "IN",
    "c3": "IND"
  },
  {
    "iata": "AUH",
    "timezone": "Asia/Dubai",
    "country": "United Arab Emirates",
    "state": "Abu-Dhabi",
    "city": "Abu Dhabi",
    "latitude": 24.43300056,
    "longitude": 54.65110016,
    "c2": "AE",
    "c3": "ARE"
  },
  {
    "iata": "AUS",
    "timezone": "America/Chicago",
    "country": "United States",
    "state": "Texas",
    "city": "Austin",
    "latitude": 30.19449997,
    "longitude": -97.66989899,
    "c2": "US",
    "c3": "USA"
  },
  {
    "iata": "AVL",
    "timezone": "America/New_York",
    "country": "United States",
    "state": "North Carolina",
    "city": "Asheville",
    "latitude": 35.43619919,
    "longitude": -82.54180145,
    "c2": "US",
    "c3": "USA"
  },
  {
    "iata": "AYT",
    "timezone": "Europe/Istanbul",
    "country": "Turkey",
    "state": "Antalya",
    "city": "Antalya",
    "latitude": 36.89870071,
    "longitude": 30.80050087,
    "c2": "TR",
    "c3": "TUR"
  },
  {
    "iata": "BAB",
    "timezone": "America/Los_Angeles",
    "country": "United States",
    "state": "California",
    "city": "Marysville",
    "latitude": 39.13610077,
    "longitude": -121.4369965,
    "c2": "US",
    "c3": "USA"
  },
  {
    "iata": "BAD",
    "timezone": "America/Chicago",
    "country": "United States",
    "state": "Louisiana",
    "city": "Bossier City",
    "latitude": 32.50180054,
    "longitude": -93.66269684,
    "c2": "US",
    "c3": "USA"
  },
  {
    "iata": "BAH",
    "timezone": "Asia/Bahrain",
    "country": "Bahrain",
    "state": "Muharraq",
    "city": "Manama",
    "latitude": 26.27079964,
    "longitude": 50.63359833,
    "c2": "BH",
    "c3": "BHR"
  },
  {
    "iata": "BCN",
    "timezone": "Europe/Madrid",
    "country": "Spain",
    "state": "Catalonia",
    "city": "Barcelona",
    "latitude": 41.29710007,
    "longitude": 2.078459978,
    "c2": "ES",
    "c3": "ESP"
  },
  {
    "iata": "BDL",
    "timezone": "America/New_York",
    "country": "United States",
    "state": "Connecticut",
    "city": "Hartford",
    "latitude": 41.93889999,
    "longitude": -72.68319702,
    "c2": "US",
    "c3": "USA"
  },
  {
    "iata": "BEG",
    "timezone": "Europe/Belgrade",
    "country": "Serbia",
    "state": "",
    "city": "Belgrad",
    "latitude": 44.81840134,
    "longitude": 20.3090992,
    "c2": "RS",
    "c3": "SRB"
  },
  {
    "iata": "BEL",
    "timezone": "America/Belem",
    "country": "Brazil",
    "state": "Para",
    "city": "Belem",
    "latitude": -1.37925005,
    "longitude": -48.47629929,
    "c2": "BR",
    "c3": "BRA"
  },
  {
    "iata": "BEY",
    "timezone": "Asia/Beirut",
    "country": "Lebanon",
    "state": "Mont-Liban",
    "city": "Beirut",
    "latitude": 33.82089996,
    "longitude": 35.48839951,
    "c2": "LB",
    "c3": "LBN"
  },
  {
    "iata": "BFI",
    "timezone": "America/Los_Angeles",
    "country": "United States",
    "state": "Washington",
    "city": "Seattle",
    "latitude": 47.52999878,
    "longitude": -122.302002,
    "c2": "US",
    "c3": "USA"
  },
  {
    "iata": "BFS",
    "timezone": "Europe/London",
    "country": "United Kingdom",
    "state": "Northern-Ireland",
    "city": "Belfast",
    "latitude": 54.65750122,
    "longitude": -6.215829849,
    "c2": "GB",
    "c3": "GBR"
  },
  {
    "iata": "BGO",
    "timezone": "Europe/Oslo",
    "country": "Norway",
    "state": "Hordaland",
    "city": "Bergen",
    "latitude": 60.29339981,
    "longitude": 5.218140125,
    "c2": "NO",
    "c3": "NOR"
  },
  {
    "iata": "BGR",
    "timezone": "America/New_York",
    "country": "United States",
    "state": "Maine",
    "city": "Bangor",
    "latitude": 44.80739975,
    "longitude": -68.82810211,
    "c2": "US",
    "c3": "USA"
  },
  {
    "iata": "BGY",
    "timezone": "Europe/Rome",
    "country": "Italy",
    "state": "Lombardy",
    "city": "Bergamo",
    "latitude": 45.6739006,
    "longitude": 9.704170227,
    "c2": "IT",
    "c3": "ITA"
  },
  {
    "iata": "BHD",
    "timezone": "Europe/London",
    "country": "United Kingdom",
    "state": "Northern-Ireland",
    "city": "Belfast",
    "latitude": 54.61809921,
    "longitude": -5.872499943,
    "c2": "GB",
    "c3": "GBR"
  },
  {
    "iata": "BHM",
    "timezone": "America/Chicago",
    "country": "United States",
    "state": "Alabama",
    "city": "Birmingham",
    "latitude": 33.56290054,
    "longitude": -86.75350189,
    "c2": "US",
    "c3": "USA"
  },
  {
    "iata": "BHX",
    "timezone": "Europe/London",
    "country": "United Kingdom",
    "state": "England",
    "city": "Birmingham",
    "latitude": 52.45389938,
    "longitude": -1.748029947,
    "c2": "GB",
    "c3": "GBR"
  },
  {
    "iata": "BIL",
    "timezone": "America/Denver",
    "country": "United States",
    "state": "Montana",
    "city": "Billings",
    "latitude": 45.80770111,
    "longitude": -108.5429993,
    "c2": "US",
    "c3": "USA"
  },
  {
    "iata": "BJV",
    "timezone": "Europe/Istanbul",
    "country": "Turkey",
    "state": "Mugla",
    "city": "Bodrum",
    "latitude": 37.25059891,
    "longitude": 27.66430092,
    "c2": "TR",
    "c3": "TUR"
  },
  {
    "iata": "BKK",
    "timezone": "Asia/Bangkok",
    "country": "Thailand",
    "state": "Samut-Prakan",
    "city": "Bangkok",
    "latitude": 13.68109989,
    "longitude": 100.7470016,
    "c2": "TH",
    "c3": "THA"
  },
  {
    "iata": "BLL",
    "timezone": "Europe/Copenhagen",
    "country": "Denmark",
    "state": "South-Denmark",
    "city": "Billund",
    "latitude": 55.74029922,
    "longitude": 9.151780129,
    "c2": "DK",
    "c3": "DNK"
  },
  {
    "iata": "BLQ",
    "timezone": "Europe/Rome",
    "country": "Italy",
    "state": "Emilia-Romagna",
    "city": "Bologna",
    "latitude": 44.53540039,
    "longitude": 11.2887001,
    "c2": "IT",
    "c3": "ITA"
  },
  {
    "iata": "BLR",
    "timezone": "Asia/Kolkata",
    "country": "India",
    "state": "Karnataka",
    "city": "Bangalore",
    "latitude": 13.19789982,
    "longitude": 77.70629883,
    "c2": "IN",
    "c3": "IND"
  },
  {
    "iata": "BMI",
    "timezone": "America/Chicago",
    "country": "United States",
    "state": "Illinois",
    "city": "Bloomington-Normal",
    "latitude": 40.47710037,
    "longitude": -88.91590118,
    "c2": "US",
    "c3": "USA"
  },
  {
    "iata": "BNA",
    "timezone": "America/Chicago",
    "country": "United States",
    "state": "Tennessee",
    "city": "Nashville",
    "latitude": 36.12450027,
    "longitude": -86.67819977,
    "c2": "US",
    "c3": "USA"
  },
  {
    "iata": "BNE",
    "timezone": "Australia/Brisbane",
    "country": "Australia",
    "state": "Queensland",
    "city": "Brisbane",
    "latitude": -27.38419914,
    "longitude": 153.1170044,
    "c2": "AU",
    "c3": "AUS"
  },
  {
    "iata": "BOD",
    "timezone": "Europe/Paris",
    "country": "France",
    "state": "Nouvelle-Aquitaine",
    "city": "Bordeaux/Merignac",
    "latitude": 44.82830048,
    "longitude": -0.7155560255,
    "c2": "FR",
    "c3": "FRA"
  },
  {
    "iata": "BOG",
    "timezone": "America/Bogota",
    "country": "Colombia",
    "state": "Bogota-D-C-",
    "city": "Bogota",
    "latitude": 4.70159,
    "longitude": -74.1469,
    "c2": "CO",
    "c3": "COL"
  },
  {
    "iata": "BOH",
    "timezone": "Europe/London",
    "country": "United Kingdom",
    "state": "England",
    "city": "Bournemouth",
    "latitude": 50.77999878,
    "longitude": -1.842499971,
    "c2": "GB",
    "c3": "GBR"
  },
  {
    "iata": "BOI",
    "timezone": "America/Boise",
    "country": "United States",
    "state": "Idaho",
    "city": "Boise",
    "latitude": 43.56439972,
    "longitude": -116.2229996,
    "c2": "US",
    "c3": "USA"
  },
  {
    "iata": "BOJ",
    "timezone": "Europe/Sofia",
    "country": "Bulgaria",
    "state": "Burgas",
    "city": "Burgas",
    "latitude": 42.56959915,
    "longitude": 27.51519966,
    "c2": "BG",
    "c3": "BGR"
  },
  {
    "iata": "BOM",
    "timezone": "Asia/Kolkata",
    "country": "India",
    "state": "Maharashtra",
    "city": "Mumbai",
    "latitude": 19.08869934,
    "longitude": 72.86789703,
    "c2": "IN",
    "c3": "IND"
  },
  {
    "iata": "BOO",
    "timezone": "Europe/Oslo",
    "country": "Norway",
    "state": "Nordland",
    "city": "Bodo",
    "latitude": 67.26920319,
    "longitude": 14.36530018,
    "c2": "NO",
    "c3": "NOR"
  },
  {
    "iata": "BOS",
    "timezone": "America/New_York",
    "country": "United States",
    "state": "Massachusetts",
    "city": "Boston",
    "latitude": 42.36429977,
    "longitude": -71.00520325,
    "c2": "US",
    "c3": "USA"
  },
  {
    "iata": "BRE",
    "timezone": "Europe/Berlin",
    "country": "Germany",
    "state": "Bremen",
    "city": "Bremen",
    "latitude": 53.04750061,
    "longitude": 8.786669731,
    "c2": "DE",
    "c3": "DEU"
  },
  {
    "iata": "BRI",
    "timezone": "Europe/Rome",
    "country": "Italy",
    "state": "Apulia",
    "city": "Bari",
    "latitude": 41.13890076,
    "longitude": 16.76059914,
    "c2": "IT",
    "c3": "ITA"
  },
  {
    "iata": "BRS",
    "timezone": "Europe/London",
    "country": "United Kingdom",
    "state": "England",
    "city": "Bristol",
    "latitude": 51.38270187,
    "longitude": -2.719089985,
    "c2": "GB",
    "c3": "GBR"
  },
  {
    "iata": "BRU",
    "timezone": "Europe/Brussels",
    "country": "Belgium",
    "state": "Flanders",
    "city": "Brussels",
    "latitude": 50.90140152,
    "longitude": 4.48443985,
    "c2": "BE",
    "c3": "BEL"
  },
  {
    "iata": "BSB",
    "timezone": "America/Sao_Paulo",
    "country": "Brazil",
    "state": "Federal-District",
    "city": "Brasilia",
    "latitude": -15.86916733,
    "longitude": -47.92083359,
    "c2": "BR",
    "c3": "BRA"
  },
  {
    "iata": "BSR",
    "timezone": "Asia/Baghdad",
    "country": "Iraq",
    "state": "Basra",
    "city": "Basrah",
    "latitude": 30.54910088,
    "longitude": 47.66210175,
    "c2": "IQ",
    "c3": "IRQ"
  },
  {
    "iata": "BTR",
    "timezone": "America/Chicago",
    "country": "United States",
    "state": "Louisiana",
    "city": "Baton Rouge",
    "latitude": 30.53319931,
    "longitude": -91.14959717,
    "c2": "US",
    "c3": "USA"
  },
  {
    "iata": "BTS",
    "timezone": "Europe/Bratislava",
    "country": "Slovakia",
    "state": "Bratislavsky",
    "city": "Bratislava",
    "latitude": 48.17020035,
    "longitude": 17.21269989,
    "c2": "SK",
    "c3": "SVK"
  },
  {
    "iata": "BUD",
    "timezone": "Europe/Budapest",
    "country": "Hungary",
    "state": "Budapest",
    "city": "Budapest",
    "latitude": 47.43690109,
    "longitude": 19.25559998,
    "c2": "HU",
    "c3": "HUN"
  },
  {
    "iata": "BUF",
    "timezone": "America/New_York",
    "country": "United States",
    "state": "New York",
    "city": "Buffalo",
    "latitude": 42.94049835,
    "longitude": -78.73220062,
    "c2": "US",
    "c3": "USA"
  },
  {
    "iata": "BVE",
    "timezone": "Europe/Paris",
    "country": "France",
    "state": "Nouvelle-Aquitaine",
    "city": "Brive-la-Gaillarde",
    "latitude": 45.1507988,
    "longitude": 1.469169974,
    "c2": "FR",
    "c3": "FRA"
  },
  {
    "iata": "BVE",
    "timezone": "Europe/Paris",
    "country": "France",
    "state": "Grand-Est",
    "city": "St Dizier",
    "latitude": 48.77999878,
    "longitude": 5.980000019,
    "c2": "FR",
    "c3": "FRA"
  },
  {
    "iata": "BWI",
    "timezone": "America/New_York",
    "country": "United States",
    "state": "Maryland",
    "city": "Baltimore",
    "latitude": 39.17539978,
    "longitude": -76.66829681,
    "c2": "US",
    "c3": "USA"
  },
  {
    "iata": "BWN",
    "timezone": "Asia/Brunei",
    "country": "Brunei",
    "state": "",
    "city": "Bandar Seri Begawan",
    "latitude": 4.944200039,
    "longitude": 114.9280014,
    "c2": "IO",
    "c3": "IOT"
  },
  {
    "iata": "BZE",
    "timezone": "America/Belize",
    "country": "Belize",
    "state": "Belize",
    "city": "Belize City",
    "latitude": 17.53910065,
    "longitude": -88.30819702,
    "c2": "BZ",
    "c3": "BLZ"
  },
  {
    "iata": "BZZ",
    "timezone": "Europe/London",
    "country": "United Kingdom",
    "state": "England",
    "city": "Brize Norton",
    "latitude": 51.75,
    "longitude": -1.583619952,
    "c2": "GB",
    "c3": "GBR"
  },
  {
    "iata": "CAE",
    "timezone": "America/New_York",
    "country": "United States",
    "state": "South Carolina",
    "city": "Columbia",
    "latitude": 33.93880081,
    "longitude": -81.11949921,
    "c2": "US",
    "c3": "USA"
  },
  {
    "iata": "CAG",
    "timezone": "Europe/Rome",
    "country": "Italy",
    "state": "Sardinia",
    "city": "Cagliari",
    "latitude": 39.25149918,
    "longitude": 9.054280281,
    "c2": "IT",
    "c3": "ITA"
  },
  {
    "iata": "CAI",
    "timezone": "Africa/Cairo",
    "country": "Egypt",
    "state": "Cairo",
    "city": "Cairo",
    "latitude": 30.12190056,
    "longitude": 31.40559959,
    "c2": "EG",
    "c3": "EGY"
  },
  {
    "iata": "CAN",
    "timezone": "Asia/Shanghai",
    "country": "China",
    "state": "Guangdong",
    "city": "Guangzhou",
    "latitude": 23.39240074,
    "longitude": 113.2990036,
    "c2": "CN",
    "c3": "CHN"
  },
  {
    "iata": "CBR",
    "timezone": "Australia/Sydney",
    "country": "Australia",
    "state": "ACT",
    "city": "Canberra",
    "latitude": -35.30690002,
    "longitude": 149.1950073,
    "c2": "AU",
    "c3": "AUS"
  },
  {
    "iata": "CCJ",
    "timezone": "Asia/Kolkata",
    "country": "India",
    "state": "Kerala",
    "city": "Calicut",
    "latitude": 11.13679981,
    "longitude": 75.95529938,
    "c2": "IN",
    "c3": "IND"
  },
  {
    "iata": "CCU",
    "timezone": "Asia/Kolkata",
    "country": "India",
    "state": "West-Bengal",
    "city": "Kolkata",
    "latitude": 22.65469933,
    "longitude": 88.44670105,
    "c2": "IN",
    "c3": "IND"
  },
  {
    "iata": "CDG",
    "timezone": "Europe/Paris",
    "country": "France",
    "state": "Ile-de-France",
    "city": "Paris",
    "latitude": 49.01279831,
    "longitude": 2.549999952,
    "c2": "FR",
    "c3": "FRA"
  },
  {
    "iata": "CEB",
    "timezone": "Asia/Manila",
    "country": "Philippines",
    "state": "Central-Visayas",
    "city": "Lapu-Lapu City",
    "latitude": 10.30749989,
    "longitude": 123.9789963,
    "c2": "PH",
    "c3": "PHL"
  },
  {
    "iata": "CGH",
    "timezone": "America/Sao_Paulo",
    "country": "Brazil",
    "state": "Sao Paulo",
    "city": "Sao Paulo",
    "latitude": -23.62611008,
    "longitude": -46.65638733,
    "c2": "BR",
    "c3": "BRA"
  },
  {
    "iata": "CGK",
    "timezone": "Asia/Jakarta",
    "country": "Indonesia",
    "state": "",
    "city": "Jakarta",
    "latitude": -6.12556982,
    "longitude": 106.6559982,
    "c2": "ID",
    "c3": "IDN"
  },
  {
    "iata": "CGN",
    "timezone": "Europe/Berlin",
    "country": "Germany",
    "state": "North-Rhine-Westphalia",
    "city": "Cologne",
    "latitude": 50.86589813,
    "longitude": 7.142739773,
    "c2": "DE",
    "c3": "DEU"
  },
  {
    "iata": "CGO",
    "timezone": "Asia/Shanghai",
    "country": "China",
    "state": "Henan",
    "city": "Zhengzhou",
    "latitude": 34.5196991,
    "longitude": 113.8410034,
    "c2": "CN",
    "c3": "CHN"
  },
  {
    "iata": "CHA",
    "timezone": "America/New_York",
    "country": "United States",
    "state": "Tennessee",
    "city": "Chattanooga",
    "latitude": 35.03530121,
    "longitude": -85.20379639,
    "c2": "US",
    "c3": "USA"
  },
  {
    "iata": "CHC",
    "timezone": "Pacific/Auckland",
    "country": "New Zealand",
    "state": "Canterbury",
    "city": "Christchurch",
    "latitude": -43.48939896,
    "longitude": 172.5319977,
    "c2": "NZ",
    "c3": "NZL"
  },
  {
    "iata": "CHS",
    "timezone": "America/New_York",
    "country": "United States",
    "state": "South Carolina",
    "city": "Charleston",
    "latitude": 32.89860153,
    "longitude": -80.04049683,
    "c2": "US",
    "c3": "USA"
  },
  {
    "iata": "CIA",
    "timezone": "Europe/Rome",
    "country": "Italy",
    "state": "Latium",
    "city": "Roma",
    "latitude": 41.79940033,
    "longitude": 12.59490013,
    "c2": "IT",
    "c3": "ITA"
  },
  {
    "iata": "CID",
    "timezone": "America/Chicago",
    "country": "United States",
    "state": "Iowa",
    "city": "Cedar Rapids",
    "latitude": 41.88470078,
    "longitude": -91.71080017,
    "c2": "US",
    "c3": "USA"
  },
  {
    "iata": "CJJ",
    "timezone": "Asia/Seoul",
    "country": "South Korea",
    "state": "North-Chungcheong",
    "city": "Cheongju",
    "latitude": 36.71659851,
    "longitude": 127.4990005,
    "c2": "GS",
    "c3": "SGS"
  },
  {
    "iata": "CJU",
    "timezone": "Asia/Seoul",
    "country": "South Korea",
    "state": "Jeju-do",
    "city": "Jeju City",
    "latitude": 33.51129913,
    "longitude": 126.4929962,
    "c2": "GS",
    "c3": "SGS"
  },
  {
    "iata": "CKG",
    "timezone": "Asia/Shanghai",
    "country": "China",
    "state": "Chongqing",
    "city": "Chongqing",
    "latitude": 29.71920013,
    "longitude": 106.6419983,
    "c2": "CN",
    "c3": "CHN"
  },
  {
    "iata": "CLE",
    "timezone": "America/New_York",
    "country": "United States",
    "state": "Ohio",
    "city": "Cleveland",
    "latitude": 41.4117012,
    "longitude": -81.84980011,
    "c2": "US",
    "c3": "USA"
  },
  {
    "iata": "CLT",
    "timezone": "America/New_York",
    "country": "United States",
    "state": "North Carolina",
    "city": "Charlotte",
    "latitude": 35.2140007,
    "longitude": -80.94309998,
    "c2": "US",
    "c3": "USA"
  },
  {
    "iata": "CMB",
    "timezone": "Asia/Colombo",
    "country": "Sri Lanka",
    "state": "Western",
    "city": "Colombo",
    "latitude": 7.180759907,
    "longitude": 79.88410187,
    "c2": "LK",
    "c3": "LKA"
  },
  {
    "iata": "CMH",
    "timezone": "America/New_York",
    "country": "United States",
    "state": "Ohio",
    "city": "Columbus",
    "latitude": 39.9980011,
    "longitude": -82.89189911,
    "c2": "US",
    "c3": "USA"
  },
  {
    "iata": "CMN",
    "timezone": "Africa/Casablanca",
    "country": "Morocco",
    "state": "",
    "city": "Casablanca",
    "latitude": 33.36750031,
    "longitude": -7.589970112,
    "c2": "MA",
    "c3": "MAR"
  },
  {
    "iata": "CNF",
    "timezone": "America/Sao_Paulo",
    "country": "Brazil",
    "state": "Minas Gerais",
    "city": "Belo Horizonte",
    "latitude": -19.62444305,
    "longitude": -43.9719429,
    "c2": "BR",
    "c3": "BRA"
  },
  {
    "iata": "CNX",
    "timezone": "Asia/Bangkok",
    "country": "Thailand",
    "state": "Chiang-Mai",
    "city": "Chiang Mai",
    "latitude": 18.76679993,
    "longitude": 98.96260071,
    "c2": "TH",
    "c3": "THA"
  },
  {
    "iata": "COK",
    "timezone": "Asia/Kolkata",
    "country": "India",
    "state": "Kerala",
    "city": "Cochin",
    "latitude": 10.15200043,
    "longitude": 76.40190125,
    "c2": "IN",
    "c3": "IND"
  },
  {
    "iata": "COS",
    "timezone": "America/Denver",
    "country": "United States",
    "state": "Colorado",
    "city": "Colorado Springs",
    "latitude": 38.80580139,
    "longitude": -104.7009964,
    "c2": "US",
    "c3": "USA"
  },
  {
    "iata": "CPH",
    "timezone": "Europe/Copenhagen",
    "country": "Denmark",
    "state": "Capital-Region",
    "city": "Copenhagen",
    "latitude": 55.61790085,
    "longitude": 12.65600014,
    "c2": "DK",
    "c3": "DNK"
  },
  {
    "iata": "CPR",
    "timezone": "America/Denver",
    "country": "United States",
    "state": "Wyoming",
    "city": "Casper",
    "latitude": 42.90800095,
    "longitude": -106.4639969,
    "c2": "US",
    "c3": "USA"
  },
  {
    "iata": "CPT",
    "timezone": "Africa/Johannesburg",
    "country": "South Africa",
    "state": "Western-Cape",
    "city": "Cape Town",
    "latitude": -33.96480179,
    "longitude": 18.60169983,
    "c2": "ZA",
    "c3": "ZAF"
  },
  {
    "iata": "CRK",
    "timezone": "Asia/Manila",
    "country": "Philippines",
    "state": "Central-Luzon",
    "city": "Angeles City",
    "latitude": 15.18599987,
    "longitude": 120.5599976,
    "c2": "PH",
    "c3": "PHL"
  },
  {
    "iata": "CRP",
    "timezone": "America/Chicago",
    "country": "United States",
    "state": "Texas",
    "city": "Corpus Christi",
    "latitude": 27.77039909,
    "longitude": -97.50119781,
    "c2": "US",
    "c3": "USA"
  },
  {
    "iata": "CRW",
    "timezone": "America/New_York",
    "country": "United States",
    "state": "West Virginia",
    "city": "Charleston",
    "latitude": 38.37310028,
    "longitude": -81.59320068,
    "c2": "US",
    "c3": "USA"
  },
  {
    "iata": "CSX",
    "timezone": "Asia/Shanghai",
    "country": "China",
    "state": "Hunan",
    "city": "Changsha",
    "latitude": 28.18919945,
    "longitude": 113.2200012,
    "c2": "CN",
    "c3": "CHN"
  },
  {
    "iata": "CTA",
    "timezone": "Europe/Rome",
    "country": "Italy",
    "state": "Sicily",
    "city": "Catania",
    "latitude": 37.46680069,
    "longitude": 15.06639957,
    "c2": "IT",
    "c3": "ITA"
  },
  {
    "iata": "CTS",
    "timezone": "Asia/Tokyo",
    "country": "Japan",
    "state": "Hokkaido",
    "city": "Tomakomai",
    "latitude": 42.77519989,
    "longitude": 141.6920013,
    "c2": "JP",
    "c3": "JPN"
  },
  {
    "iata": "CTU",
    "timezone": "Asia/Shanghai",
    "country": "China",
    "state": "Sichuan",
    "city": "Chengdu",
    "latitude": 30.57850075,
    "longitude": 103.9469986,
    "c2": "CN",
    "c3": "CHN"
  },
  {
    "iata": "CUN",
    "timezone": "America/Cancun",
    "country": "Mexico",
    "state": "Quintana-Roo",
    "city": "Cancun",
    "latitude": 21.03650093,
    "longitude": -86.87709808,
    "c2": "MX",
    "c3": "MEX"
  },
  {
    "iata": "CUZ",
    "timezone": "America/Lima",
    "country": "Peru",
    "state": "Cusco",
    "city": "Cusco",
    "latitude": -13.53569984,
    "longitude": -71.938797,
    "c2": "PE",
    "c3": "PER"
  },
  {
    "iata": "CVG",
    "timezone": "America/New_York",
    "country": "United States",
    "state": "Kentucky",
    "city": "Hebron",
    "latitude": 39.04880142,
    "longitude": -84.6678009,
    "c2": "US",
    "c3": "USA"
  },
  {
    "iata": "CWL",
    "timezone": "Europe/London",
    "country": "United Kingdom",
    "state": "Wales",
    "city": "Cardiff",
    "latitude": 51.39670181,
    "longitude": -3.343329907,
    "c2": "GB",
    "c3": "GBR"
  },
  {
    "iata": "DAD",
    "timezone": "Asia/Ho_Chi_Minh",
    "country": "Vietnam",
    "state": "Da Nang",
    "city": "Da Nang",
    "latitude": 16.04389954,
    "longitude": 108.1989975,
    "c2": "VN",
    "c3": "VNM"
  },
  {
    "iata": "DAL",
    "timezone": "America/Chicago",
    "country": "United States",
    "state": "Texas",
    "city": "Dallas",
    "latitude": 32.8470993,
    "longitude": -96.85179901,
    "c2": "US",
    "c3": "USA"
  },
  {
    "iata": "DAM",
    "timezone": "Asia/Damascus",
    "country": "Syria",
    "state": "Rif-dimashq",
    "city": "Damascus",
    "latitude": 33.41149902,
    "longitude": 36.5155983,
    "c2": "CH",
    "c3": "CHE"
  },
  {
    "iata": "DAY",
    "timezone": "America/New_York",
    "country": "United States",
    "state": "Ohio",
    "city": "Dayton",
    "latitude": 39.90240097,
    "longitude": -84.2193985,
    "c2": "US",
    "c3": "USA"
  },
  {
    "iata": "DBQ",
    "timezone": "America/Chicago",
    "country": "United States",
    "state": "Iowa",
    "city": "Dubuque",
    "latitude": 42.40200043,
    "longitude": -90.70950317,
    "c2": "US",
    "c3": "USA"
  },
  {
    "iata": "DCA",
    "timezone": "America/New_York",
    "country": "United States",
    "state": "Virginia",
    "city": "Washington",
    "latitude": 38.85210037,
    "longitude": -77.03769684,
    "c2": "US",
    "c3": "USA"
  },
  {
    "iata": "DEL",
    "timezone": "Asia/Kolkata",
    "country": "India",
    "state": "NCT",
    "city": "New Delhi",
    "latitude": 28.56649971,
    "longitude": 77.10310364,
    "c2": "IN",
    "c3": "IND"
  },
  {
    "iata": "DEN",
    "timezone": "America/Denver",
    "country": "United States",
    "state": "Colorado",
    "city": "Denver",
    "latitude": 39.86169815,
    "longitude": -104.6729965,
    "c2": "US",
    "c3": "USA"
  },
  {
    "iata": "DFW",
    "timezone": "America/Chicago",
    "country": "United States",
    "state": "Texas",
    "city": "Dallas-Fort Worth",
    "latitude": 32.89680099,
    "longitude": -97.03800201,
    "c2": "US",
    "c3": "USA"
  },
  {
    "iata": "DHA",
    "timezone": "Asia/Riyadh",
    "country": "Saudi Arabia",
    "state": "Eastern-Province",
    "city": "",
    "latitude": 26.26539993,
    "longitude": 50.15200043,
    "c2": "SA",
    "c3": "SAU"
  },
  {
    "iata": "DKR",
    "timezone": "Africa/Dakar",
    "country": "Senegal",
    "state": "Dakar",
    "city": "Dakar",
    "latitude": 14.73970032,
    "longitude": -17.49020004,
    "c2": "SN",
    "c3": "SEN"
  },
  {
    "iata": "DLC",
    "timezone": "Asia/Shanghai",
    "country": "China",
    "state": "Liaoning",
    "city": "Dalian",
    "latitude": 38.96569824,
    "longitude": 121.5390015,
    "c2": "CN",
    "c3": "CHN"
  },
  {
    "iata": "DLH",
    "timezone": "America/Chicago",
    "country": "United States",
    "state": "Minnesota",
    "city": "Duluth",
    "latitude": 46.84209824,
    "longitude": -92.19360352,
    "c2": "US",
    "c3": "USA"
  },
  {
    "iata": "DLM",
    "timezone": "Europe/Istanbul",
    "country": "Turkey",
    "state": "Mugla",
    "city": "Dalaman",
    "latitude": 36.71310043,
    "longitude": 28.79249954,
    "c2": "TR",
    "c3": "TUR"
  },
  {
    "iata": "DME",
    "timezone": "Europe/Moscow",
    "country": "Russia",
    "state": "Moscow-Oblast",
    "city": "Moscow",
    "latitude": 55.40879822,
    "longitude": 37.90629959,
    "c2": "RO",
    "c3": "ROU"
  },
  {
    "iata": "DMK",
    "timezone": "Asia/Bangkok",
    "country": "Thailand",
    "state": "Bangkok",
    "city": "Bangkok",
    "latitude": 13.91259956,
    "longitude": 100.6070023,
    "c2": "TH",
    "c3": "THA"
  },
  {
    "iata": "DMM",
    "timezone": "Asia/Riyadh",
    "country": "Saudi Arabia",
    "state": "Eastern-Province",
    "city": "Ad Dammam",
    "latitude": 26.47120094,
    "longitude": 49.79790115,
    "c2": "SA",
    "c3": "SAU"
  },
  {
    "iata": "DNA",
    "timezone": "Asia/Tokyo",
    "country": "Japan",
    "state": "Okinawa",
    "city": "",
    "latitude": 26.35560036,
    "longitude": 127.7679977,
    "c2": "JP",
    "c3": "JPN"
  },
  {
    "iata": "DOH",
    "timezone": "Asia/Qatar",
    "country": "Qatar",
    "state": "Baladiyat-ad-Dawhah",
    "city": "Doha",
    "latitude": 25.2605946,
    "longitude": 51.6137665,
    "c2": "QA",
    "c3": "QAT"
  },
  {
    "iata": "DOK",
    "timezone": "Europe/Kyiv",
    "country": "Ukraine",
    "state": "Donetsk",
    "city": "Donetsk",
    "latitude": 48.07360077,
    "longitude": 37.73970032,
    "c2": "UA",
    "c3": "UKR"
  },
  {
    "iata": "DPS",
    "timezone": "Asia/Makassar",
    "country": "Indonesia",
    "state": "Bali",
    "city": "Denpasar-Bali Island",
    "latitude": -8.748169899,
    "longitude": 115.1669998,
    "c2": "ID",
    "c3": "IDN"
  },
  {
    "iata": "DRS",
    "timezone": "Europe/Berlin",
    "country": "Germany",
    "state": "Saxony",
    "city": "Dresden",
    "latitude": 51.13280106,
    "longitude": 13.76720047,
    "c2": "DE",
    "c3": "DEU"
  },
  {
    "iata": "DSA",
    "timezone": "Europe/London",
    "country": "United Kingdom",
    "state": "England",
    "city": "Doncaster",
    "latitude": 53.48053781,
    "longitude": -1.010656357,
    "c2": "GB",
    "c3": "GBR"
  },
  {
    "iata": "DSM",
    "timezone": "America/Chicago",
    "country": "United States",
    "state": "Iowa",
    "city": "Des Moines",
    "latitude": 41.5340004,
    "longitude": -93.6631012,
    "c2": "US",
    "c3": "USA"
  },
  {
    "iata": "DTM",
    "timezone": "Europe/Berlin",
    "country": "Germany",
    "state": "North-Rhine-Westphalia",
    "city": "Dortmund",
    "latitude": 51.5182991,
    "longitude": 7.612239838,
    "c2": "DE",
    "c3": "DEU"
  },
  {
    "iata": "DTW",
    "timezone": "America/Detroit",
    "country": "United States",
    "state": "Michigan",
    "city": "Detroit",
    "latitude": 42.21239853,
    "longitude": -83.35340118,
    "c2": "US",
    "c3": "USA"
  },
  {
    "iata": "DUB",
    "timezone": "Europe/Dublin",
    "country": "Ireland",
    "state": "Leinster",
    "city": "Dublin",
    "latitude": 53.42129898,
    "longitude": -6.270070076,
    "c2": "IE",
    "c3": "IRL"
  },
  {
    "iata": "DUR",
    "timezone": "Africa/Johannesburg",
    "country": "South Africa",
    "state": "KwaZulu-Natal",
    "city": "Durban",
    "latitude": -29.61444444,
    "longitude": 31.11972222,
    "c2": "ZA",
    "c3": "ZAF"
  },
  {
    "iata": "DUS",
    "timezone": "Europe/Berlin",
    "country": "Germany",
    "state": "North-Rhine-Westphalia",
    "city": "Dusseldorf",
    "latitude": 51.28950119,
    "longitude": 6.7667799,
    "c2": "DE",
    "c3": "DEU"
  },
  {
    "iata": "DVO",
    "timezone": "Asia/Manila",
    "country": "Philippines",
    "state": "Davao",
    "city": "Davao City",
    "latitude": 7.125520229,
    "longitude": 125.6460037,
    "c2": "PH",
    "c3": "PHL"
  },
  {
    "iata": "DWC",
    "timezone": "Asia/Dubai",
    "country": "United Arab Emirates",
    "state": "Dubai",
    "city": "Jebel Ali",
    "latitude": 24.89666667,
    "longitude": 55.16138889,
    "c2": "AE",
    "c3": "ARE"
  },
  {
    "iata": "DXB",
    "timezone": "Asia/Dubai",
    "country": "United Arab Emirates",
    "state": "Dubai",
    "city": "Dubai",
    "latitude": 25.25279999,
    "longitude": 55.36439896,
    "c2": "AE",
    "c3": "ARE"
  },
  {
    "iata": "EDI",
    "timezone": "Europe/London",
    "country": "United Kingdom",
    "state": "Scotland",
    "city": "Edinburgh",
    "latitude": 55.95000076,
    "longitude": -3.372499943,
    "c2": "GB",
    "c3": "GBR"
  },
  {
    "iata": "EIN",
    "timezone": "Europe/Amsterdam",
    "country": "Netherlands",
    "state": "North-Brabant",
    "city": "Eindhoven",
    "latitude": 51.45009995,
    "longitude": 5.374529839,
    "c2": "NL",
    "c3": "NLD"
  },
  {
    "iata": "EMA",
    "timezone": "Europe/London",
    "country": "United Kingdom",
    "state": "England",
    "city": "Nottingham",
    "latitude": 52.83110046,
    "longitude": -1.328060031,
    "c2": "GB",
    "c3": "GBR"
  },
  {
    "iata": "ERI",
    "timezone": "America/New_York",
    "country": "United States",
    "state": "Pennsylvania",
    "city": "Erie",
    "latitude": 42.08312701,
    "longitude": -80.17386675,
    "c2": "US",
    "c3": "USA"
  },
  {
    "iata": "ERZ",
    "timezone": "Europe/Istanbul",
    "country": "Turkey",
    "state": "Erzurum",
    "city": "Erzurum",
    "latitude": 39.95650101,
    "longitude": 41.17020035,
    "c2": "TR",
    "c3": "TUR"
  },
  {
    "iata": "ESB",
    "timezone": "Europe/Istanbul",
    "country": "Turkey",
    "state": "Ankara",
    "city": "Ankara",
    "latitude": 40.12810135,
    "longitude": 32.99509811,
    "c2": "TR",
    "c3": "TUR"
  },
  {
    "iata": "EVN",
    "timezone": "Asia/Yerevan",
    "country": "Armenia",
    "state": "",
    "city": "Yerevan",
    "latitude": 40.14730072,
    "longitude": 44.39590073,
    "c2": "AM",
    "c3": "ARM"
  },
  {
    "iata": "EWR",
    "timezone": "America/New_York",
    "country": "United States",
    "state": "New Jersey",
    "city": "Newark",
    "latitude": 40.69250107,
    "longitude": -74.16870117,
    "c2": "US",
    "c3": "USA"
  },
  {
    "iata": "EXT",
    "timezone": "Europe/London",
    "country": "United Kingdom",
    "state": "England",
    "city": "Exeter",
    "latitude": 50.7344017,
    "longitude": -3.413889885,
    "c2": "GB",
    "c3": "GBR"
  },
  {
    "iata": "EZE",
    "timezone": "America/Argentina/Buenos_Aires",
    "country": "Argentina",
    "state": "Buenos-Aires",
    "city": "Ezeiza",
    "latitude": -34.8222,
    "longitude": -58.5358,
    "c2": "AR",
    "c3": "ARG"
  },
  {
    "iata": "FAI",
    "timezone": "America/Anchorage",
    "country": "United States",
    "state": "Alaska",
    "city": "Fairbanks",
    "latitude": 64.81510162,
    "longitude": -147.8560028,
    "c2": "US",
    "c3": "USA"
  },
  {
    "iata": "FAO",
    "timezone": "Europe/Lisbon",
    "country": "Portugal",
    "state": "Faro",
    "city": "Faro",
    "latitude": 37.01440048,
    "longitude": -7.965909958,
    "c2": "PT",
    "c3": "PRT"
  },
  {
    "iata": "FCO",
    "timezone": "Europe/Rome",
    "country": "Italy",
    "state": "Latium",
    "city": "Rome",
    "latitude": 41.80450058,
    "longitude": 12.25080013,
    "c2": "IT",
    "c3": "ITA"
  },
  {
    "iata": "FFD",
    "timezone": "Europe/London",
    "country": "United Kingdom",
    "state": "England",
    "city": "Fairford",
    "latitude": 51.68220139,
    "longitude": -1.790030003,
    "c2": "GB",
    "c3": "GBR"
  },
  {
    "iata": "FKB",
    "timezone": "Europe/Berlin",
    "country": "Germany",
    "state": "Baden-Wuerttemberg",
    "city": "Baden-Baden",
    "latitude": 48.77939987,
    "longitude": 8.080499649,
    "c2": "DE",
    "c3": "DEU"
  },
  {
    "iata": "FLL",
    "timezone": "America/New_York",
    "country": "United States",
    "state": "Florida",
    "city": "Fort Lauderdale",
    "latitude": 26.07259941,
    "longitude": -80.15270233,
    "c2": "US",
    "c3": "USA"
  },
  {
    "iata": "FLN",
    "timezone": "America/Sao_Paulo",
    "country": "Brazil",
    "state": "Santa-Catarina",
    "city": "Florianopolis",
    "latitude": -27.67027855,
    "longitude": -48.55250168,
    "c2": "BR",
    "c3": "BRA"
  },
  {
    "iata": "FMO",
    "timezone": "Europe/Berlin",
    "country": "Germany",
    "state": "North-Rhine-Westphalia",
    "city": "Munster",
    "latitude": 52.13460159,
    "longitude": 7.684830189,
    "c2": "DE",
    "c3": "DEU"
  },
  {
    "iata": "FOC",
    "timezone": "Asia/Shanghai",
    "country": "China",
    "state": "Fujian",
    "city": "Fuzhou",
    "latitude": 25.93510056,
    "longitude": 119.663002,
    "c2": "CN",
    "c3": "CHN"
  },
  {
    "iata": "FRA",
    "timezone": "Europe/Berlin",
    "country": "Germany",
    "state": "Hesse",
    "city": "Frankfurt-am-Main",
    "latitude": 50.02640152,
    "longitude": 8.543129921,
    "c2": "DE",
    "c3": "DEU"
  },
  {
    "iata": "FRU",
    "timezone": "Asia/Bishkek",
    "country": "Kyrgyzstan",
    "state": "Chuey",
    "city": "Bishkek",
    "latitude": 43.061272,
    "longitude": 74.477508,
    "c2": "KG",
    "c3": "KGZ"
  },
  {
    "iata": "FSM",
    "timezone": "America/Chicago",
    "country": "United States",
    "state": "Arkansas",
    "city": "Fort Smith",
    "latitude": 35.33660126,
    "longitude": -94.36740112,
    "c2": "US",
    "c3": "USA"
  },
  {
    "iata": "FTW",
    "timezone": "America/Chicago",
    "country": "United States",
    "state": "Texas",
    "city": "Fort Worth",
    "latitude": 32.81980133,
    "longitude": -97.36239624,
    "c2": "US",
    "c3": "USA"
  },
  {
    "iata": "FUK",
    "timezone": "Asia/Tokyo",
    "country": "Japan",
    "state": "Fukuoka",
    "city": "Fukuoka",
    "latitude": 33.58589935,
    "longitude": 130.451004,
    "c2": "JP",
    "c3": "JPN"
  },
  {
    "iata": "FWA",
    "timezone": "America/Indiana/Indianapolis",
    "country": "United States",
    "state": "Indiana",
    "city": "Fort Wayne",
    "latitude": 40.97850037,
    "longitude": -85.19509888,
    "c2": "US",
    "c3": "USA"
  },
  {
    "iata": "GCM",
    "timezone": "America/Cayman",
    "country": "Cayman Islands",
    "state": "",
    "city": "Georgetown",
    "latitude": 19.2928009,
    "longitude": -81.35769653,
    "c2": "KY",
    "c3": "CYM"
  },
  {
    "iata": "GDL",
    "timezone": "America/Mexico_City",
    "country": "Mexico",
    "state": "Jalisco",
    "city": "Guadalajara",
    "latitude": 20.52179909,
    "longitude": -103.310997,
    "c2": "MX",
    "c3": "MEX"
  },
  {
    "iata": "GDN",
    "timezone": "Europe/Warsaw",
    "country": "Poland",
    "state": "Pomerania",
    "city": "Gdansk",
    "latitude": 54.37760162,
    "longitude": 18.46619987,
    "c2": "PL",
    "c3": "POL"
  },
  {
    "iata": "GEG",
    "timezone": "America/Los_Angeles",
    "country": "United States",
    "state": "Washington",
    "city": "Spokane",
    "latitude": 47.61989975,
    "longitude": -117.5339966,
    "c2": "US",
    "c3": "USA"
  },
  {
    "iata": "GIG",
    "timezone": "America/Sao_Paulo",
    "country": "Brazil",
    "state": "Rio-de-Janeiro",
    "city": "Rio De Janeiro",
    "latitude": -22.80999947,
    "longitude": -43.25055695,
    "c2": "BR",
    "c3": "BRA"
  },
  {
    "iata": "GLA",
    "timezone": "Europe/London",
    "country": "United Kingdom",
    "state": "Scotland",
    "city": "Glasgow",
    "latitude": 55.87189865,
    "longitude": -4.433060169,
    "c2": "GB",
    "c3": "GBR"
  },
  {
    "iata": "GMP",
    "timezone": "Asia/Seoul",
    "country": "South Korea",
    "state": "Seoul",
    "city": "Seoul",
    "latitude": 37.55830002,
    "longitude": 126.7910004,
    "c2": "GS",
    "c3": "SGS"
  },
  {
    "iata": "GOA",
    "timezone": "Europe/Rome",
    "country": "Italy",
    "state": "Liguria",
    "city": "Genova",
    "latitude": 44.41329956,
    "longitude": 8.837499619,
    "c2": "IT",
    "c3": "ITA"
  },
  {
    "iata": "GOI",
    "timezone": "Asia/Kolkata",
    "country": "India",
    "state": "Goa",
    "city": "Dabolim",
    "latitude": 15.380833,
    "longitude": 73.827,
    "c2": "IN",
    "c3": "IND"
  },
  {
    "iata": "GOT",
    "timezone": "Europe/Stockholm",
    "country": "Sweden",
    "state": "Vaestra-Gotaland",
    "city": "Gothenburg",
    "latitude": 57.66279984,
    "longitude": 12.27980042,
    "c2": "SE",
    "c3": "SWE"
  },
  {
    "iata": "GPT",
    "timezone": "America/Chicago",
    "country": "United States",
    "state": "Mississippi",
    "city": "Gulfport",
    "latitude": 30.40730095,
    "longitude": -89.07009888,
    "c2": "US",
    "c3": "USA"
  },
  {
    "iata": "GRB",
    "timezone": "America/Chicago",
    "country": "United States",
    "state": "Wisconsin",
    "city": "Green Bay",
    "latitude": 44.48509979,
    "longitude": -88.12960052,
    "c2": "US",
    "c3": "USA"
  },
  {
    "iata": "GRJ",
    "timezone": "Africa/Johannesburg",
    "country": "South Africa",
    "state": "Western-Cape",
    "city": "George",
    "latitude": -34.00559998,
    "longitude": 22.37890053,
    "c2": "ZA",
    "c3": "ZAF"
  },
  {
    "iata": "GRU",
    "timezone": "America/Sao_Paulo",
    "country": "Brazil",
    "state": "Sao Paulo",
    "city": "Sao Paulo",
    "latitude": -23.43555641,
    "longitude": -46.47305679,
    "c2": "BR",
    "c3": "BRA"
  },
  {
    "iata": "GRV",
    "timezone": "Europe/Moscow",
    "country": "Russia",
    "state": "Chechnya",
    "city": "Grozny",
    "latitude": 43.38830185,
    "longitude": 45.69860077,
    "c2": "RO",
    "c3": "ROU"
  },
  {
    "iata": "GSO",
    "timezone": "America/New_York",
    "country": "United States",
    "state": "North Carolina",
    "city": "Greensboro",
    "latitude": 36.09780121,
    "longitude": -79.93730164,
    "c2": "US",
    "c3": "USA"
  },
  {
    "iata": "GSP",
    "timezone": "America/New_York",
    "country": "United States",
    "state": "South Carolina",
    "city": "Greenville",
    "latitude": 34.89569855,
    "longitude": -82.21890259,
    "c2": "US",
    "c3": "USA"
  },
  {
    "iata": "GUM",
    "timezone": "Pacific/Guam",
    "country": "Guam",
    "state": "Barrigada",
    "city": "Hagatna",
    "latitude": 13.48340034,
    "longitude": 144.7960052,
    "c2": "GU",
    "c3": "GUM"
  },
  {
    "iata": "GVA",
    "timezone": "Europe/Paris",
    "country": "Switzerland",
    "state": "Geneva",
    "city": "Geneva",
    "latitude": 46.23809814,
    "longitude": 6.108950138,
    "c2": "CH",
    "c3": "CHE"
  },
  {
    "iata": "GYD",
    "timezone": "Asia/Baku",
    "country": "Azerbaijan",
    "state": "Baki",
    "city": "Baku",
    "latitude": 40.46749878,
    "longitude": 50.04669952,
    "c2": "AZ",
    "c3": "AZE"
  },
  {
    "iata": "GZT",
    "timezone": "Europe/Istanbul",
    "country": "Turkey",
    "state": "Gaziantep",
    "city": "Gaziantep",
    "latitude": 36.94720078,
    "longitude": 37.47869873,
    "c2": "TR",
    "c3": "TUR"
  },
  {
    "iata": "HAJ",
    "timezone": "Europe/Berlin",
    "country": "Germany",
    "state": "Lower-Saxony",
    "city": "Hannover",
    "latitude": 52.46110153,
    "longitude": 9.685079575,
    "c2": "DE",
    "c3": "DEU"
  },
  {
    "iata": "HAK",
    "timezone": "Asia/Shanghai",
    "country": "China",
    "state": "Hainan",
    "city": "Haikou",
    "latitude": 19.93490028,
    "longitude": 110.4589996,
    "c2": "CN",
    "c3": "CHN"
  },
  {
    "iata": "HAM",
    "timezone": "Europe/Berlin",
    "country": "Germany",
    "state": "Hamburg",
    "city": "Hamburg",
    "latitude": 53.63040161,
    "longitude": 9.988229752,
    "c2": "DE",
    "c3": "DEU"
  },
  {
    "iata": "HAN",
    "timezone": "Asia/Bangkok",
    "country": "Vietnam",
    "state": "Hanoi",
    "city": "Hanoi",
    "latitude": 21.22120094,
    "longitude": 105.8069992,
    "c2": "VN",
    "c3": "VNM"
  },
  {
    "iata": "HAV",
    "timezone": "America/Havana",
    "country": "Cuba",
    "state": "La-Habana",
    "city": "Havana",
    "latitude": 22.98920059,
    "longitude": -82.40910339,
    "c2": "CU",
    "c3": "CUB"
  },
  {
    "iata": "HEL",
    "timezone": "Europe/Helsinki",
    "country": "Finland",
    "state": "Uusimaa",
    "city": "Helsinki",
    "latitude": 60.31719971,
    "longitude": 24.96330071,
    "c2": "FI",
    "c3": "FIN"
  },
  {
    "iata": "HER",
    "timezone": "Europe/Athens",
    "country": "Greece",
    "state": "Crete",
    "city": "Heraklion",
    "latitude": 35.33969879,
    "longitude": 25.18029976,
    "c2": "GR",
    "c3": "GRC"
  },
  {
    "iata": "HGH",
    "timezone": "Asia/Shanghai",
    "country": "China",
    "state": "Zhejiang",
    "city": "Hangzhou",
    "latitude": 30.22949982,
    "longitude": 120.4339981,
    "c2": "CN",
    "c3": "CHN"
  },
  {
    "iata": "HIB",
    "timezone": "America/Chicago",
    "country": "United States",
    "state": "Minnesota",
    "city": "Hibbing",
    "latitude": 47.38660049,
    "longitude": -92.83899689,
    "c2": "US",
    "c3": "USA"
  },
  {
    "iata": "HKG",
    "timezone": "Asia/Hong_Kong",
    "country": "Hong Kong",
    "state": "",
    "city": "Hong Kong",
    "latitude": 22.30890083,
    "longitude": 113.9150009,
    "c2": "HK",
    "c3": "HKG"
  },
  {
    "iata": "HMO",
    "timezone": "America/Hermosillo",
    "country": "Mexico",
    "state": "Sonora",
    "city": "Hermosillo",
    "latitude": 29.09589958,
    "longitude": -111.0479965,
    "c2": "MX",
    "c3": "MEX"
  },
  {
    "iata": "HND",
    "timezone": "Asia/Tokyo",
    "country": "Japan",
    "state": "Tokyo",
    "city": "Tokyo",
    "latitude": 35.5522995,
    "longitude": 139.7799988,
    "c2": "JP",
    "c3": "JPN"
  },
  {
    "iata": "HNL",
    "timezone": "Pacific/Honolulu",
    "country": "United States",
    "state": "Hawaii",
    "city": "Honolulu",
    "latitude": 21.31870079,
    "longitude": -157.9219971,
    "c2": "US",
    "c3": "USA"
  },
  {
    "iata": "HOU",
    "timezone": "America/Chicago",
    "country": "United States",
    "state": "Texas",
    "city": "Houston",
    "latitude": 29.64539909,
    "longitude": -95.27890015,
    "c2": "US",
    "c3": "USA"
  },
  {
    "iata": "HRB",
    "timezone": "Asia/Shanghai",
    "country": "China",
    "state": "Heilongjiang",
    "city": "Harbin",
    "latitude": 45.62340164,
    "longitude": 126.25,
    "c2": "CN",
    "c3": "CHN"
  },
  {
    "iata": "HRG",
    "timezone": "Africa/Cairo",
    "country": "Egypt",
    "state": "Red-Sea",
    "city": "Hurghada",
    "latitude": 27.17830086,
    "longitude": 33.79940033,
    "c2": "EG",
    "c3": "EGY"
  },
  {
    "iata": "HRK",
    "timezone": "Europe/Kyiv",
    "country": "Ukraine",
    "state": "Kharkiv",
    "city": "Kharkiv",
    "latitude": 49.92480087,
    "longitude": 36.29000092,
    "c2": "UA",
    "c3": "UKR"
  },
  {
    "iata": "HSV",
    "timezone": "America/Chicago",
    "country": "United States",
    "state": "Alabama",
    "city": "Huntsville",
    "latitude": 34.6371994,
    "longitude": -86.77510071,
    "c2": "US",
    "c3": "USA"
  },
  {
    "iata": "HTS",
    "timezone": "America/New_York",
    "country": "United States",
    "state": "West Virginia",
    "city": "Huntington",
    "latitude": 38.36669922,
    "longitude": -82.55799866,
    "c2": "US",
    "c3": "USA"
  },
  {
    "iata": "HYD",
    "timezone": "Asia/Kolkata",
    "country": "India",
    "state": "Telangana",
    "city": "Hyderabad",
    "latitude": 17.23131752,
    "longitude": 78.42985535,
    "c2": "IN",
    "c3": "IND"
  },
  {
    "iata": "IAD",
    "timezone": "America/New_York",
    "country": "United States",
    "state": "Virginia",
    "city": "Dulles",
    "latitude": 38.94449997,
    "longitude": -77.45580292,
    "c2": "US",
    "c3": "USA"
  },
  {
    "iata": "IAH",
    "timezone": "America/Chicago",
    "country": "United States",
    "state": "Texas",
    "city": "Houston",
    "latitude": 29.9843998,
    "longitude": -95.34140015,
    "c2": "US",
    "c3": "USA"
  },
  {
    "iata": "ICN",
    "timezone": "Asia/Seoul",
    "country": "South Korea",
    "state": "Incheon",
    "city": "Seoul",
    "latitude": 37.46910095,
    "longitude": 126.4509964,
    "c2": "GS",
    "c3": "SGS"
  },
  {
    "iata": "ICT",
    "timezone": "America/Chicago",
    "country": "United States",
    "state": "Kansas",
    "city": "Wichita",
    "latitude": 37.64989853,
    "longitude": -97.43309784,
    "c2": "US",
    "c3": "USA"
  },
  {
    "iata": "IKA",
    "timezone": "Asia/Tehran",
    "country": "Iran",
    "state": "Tehran",
    "city": "Tehran",
    "latitude": 35.41609955,
    "longitude": 51.15219879,
    "c2": "ID",
    "c3": "IDN"
  },
  {
    "iata": "IND",
    "timezone": "America/Indiana/Indianapolis",
    "country": "United States",
    "state": "Indiana",
    "city": "Indianapolis",
    "latitude": 39.71730042,
    "longitude": -86.29440308,
    "c2": "US",
    "c3": "USA"
  },
  {
    "iata": "ISB",
    "timezone": "Asia/Karachi",
    "country": "Pakistan",
    "state": "Punjab",
    "city": "Islamabad",
    "latitude": 33.54908333,
    "longitude": 72.82565,
    "c2": "PK",
    "c3": "PAK"
  },
  {
    "iata": "ISB",
    "timezone": "Asia/Karachi",
    "country": "Pakistan",
    "state": "Punjab",
    "city": "Islamabad",
    "latitude": 33.61669922,
    "longitude": 73.09919739,
    "c2": "PK",
    "c3": "PAK"
  },
  {
    "iata": "ISE",
    "timezone": "Europe/Istanbul",
    "country": "Turkey",
    "state": "Isparta",
    "city": "Isparta",
    "latitude": 37.85540009,
    "longitude": 30.36840057,
    "c2": "TR",
    "c3": "TUR"
  },
  {
    "iata": "IST",
    "timezone": "Europe/Istanbul",
    "country": "Turkey",
    "state": "Istanbul",
    "city": "Arnavutkoy",
    "latitude": 41.262222,
    "longitude": 28.727778,
    "c2": "TR",
    "c3": "TUR"
  },
  {
    "iata": "ITM",
    "timezone": "Asia/Tokyo",
    "country": "Japan",
    "state": "Hyogo",
    "city": "Osaka",
    "latitude": 34.78549957,
    "longitude": 135.4380035,
    "c2": "JP",
    "c3": "JPN"
  },
  {
    "iata": "JAN",
    "timezone": "America/Chicago",
    "country": "United States",
    "state": "Mississippi",
    "city": "Jackson",
    "latitude": 32.31119919,
    "longitude": -90.07589722,
    "c2": "US",
    "c3": "USA"
  },
  {
    "iata": "JAX",
    "timezone": "America/New_York",
    "country": "United States",
    "state": "Florida",
    "city": "Jacksonville",
    "latitude": 30.49410057,
    "longitude": -81.68789673,
    "c2": "US",
    "c3": "USA"
  },
  {
    "iata": "JED",
    "timezone": "Asia/Riyadh",
    "country": "Saudi Arabia",
    "state": "Makkah",
    "city": "Jeddah",
    "latitude": 21.67959976,
    "longitude": 39.15650177,
    "c2": "SA",
    "c3": "SAU"
  },
  {
    "iata": "JFK",
    "timezone": "America/New_York",
    "country": "United States",
    "state": "New York",
    "city": "New York",
    "latitude": 40.63980103,
    "longitude": -73.77890015,
    "c2": "US",
    "c3": "USA"
  },
  {
    "iata": "JLN",
    "timezone": "America/Chicago",
    "country": "United States",
    "state": "Missouri",
    "city": "Joplin",
    "latitude": 37.15179825,
    "longitude": -94.49829865,
    "c2": "US",
    "c3": "USA"
  },
  {
    "iata": "JNB",
    "timezone": "Africa/Johannesburg",
    "country": "South Africa",
    "state": "Gauteng",
    "city": "Johannesburg",
    "latitude": -26.133333,
    "longitude": 28.25,
    "c2": "ZA",
    "c3": "ZAF"
  },
  {
    "iata": "KBP",
    "timezone": "Europe/Kyiv",
    "country": "Ukraine",
    "state": "Kyiv",
    "city": "Kiev",
    "latitude": 50.34500122,
    "longitude": 30.8946991,
    "c2": "UA",
    "c3": "UKR"
  },
  {
    "iata": "KEF",
    "timezone": "Atlantic/Reykjavik",
    "country": "Iceland",
    "state": "Southern Peninsula",
    "city": "Reykjavik",
    "latitude": 63.98500061,
    "longitude": -22.60560036,
    "c2": "IS",
    "c3": "ISL"
  },
  {
    "iata": "KGF",
    "timezone": "Asia/Almaty",
    "country": "Kazakhstan",
    "state": "Qaraghandy",
    "city": "Karaganda",
    "latitude": 49.67079926,
    "longitude": 73.33439636,
    "c2": "KZ",
    "c3": "KAZ"
  },
  {
    "iata": "KHH",
    "timezone": "Asia/Taipei",
    "country": "Taiwan",
    "state": "Takao",
    "city": "Kaohsiung City",
    "latitude": 22.57710075,
    "longitude": 120.3499985,
    "c2": "TW",
    "c3": "TWN"
  },
  {
    "iata": "KIN",
    "timezone": "America/Jamaica",
    "country": "Jamaica",
    "state": "Kingston",
    "city": "Kingston",
    "latitude": 17.93569946,
    "longitude": -76.78749847,
    "c2": "JM",
    "c3": "JAM"
  },
  {
    "iata": "KIX",
    "timezone": "Asia/Tokyo",
    "country": "Japan",
    "state": "Osaka",
    "city": "Osaka",
    "latitude": 34.4272995,
    "longitude": 135.2440033,
    "c2": "JP",
    "c3": "JPN"
  },
  {
    "iata": "KJA",
    "timezone": "Asia/Krasnoyarsk",
    "country": "Russia",
    "state": "Krasnoyarskiy",
    "city": "Krasnoyarsk",
    "latitude": 56.17290115,
    "longitude": 92.49330139,
    "c2": "RO",
    "c3": "ROU"
  },
  {
    "iata": "KMG",
    "timezone": "Asia/Shanghai",
    "country": "China",
    "state": "Yunnan",
    "city": "Kunming",
    "latitude": 24.99239922,
    "longitude": 102.7440033,
    "c2": "CN",
    "c3": "CHN"
  },
  {
    "iata": "KNH",
    "timezone": "Asia/Taipei",
    "country": "Taiwan",
    "state": "Fukien",
    "city": "Shang-I",
    "latitude": 24.42790031,
    "longitude": 118.3590012,
    "c2": "TW",
    "c3": "TWN"
  },
  {
    "iata": "KOJ",
    "timezone": "Asia/Tokyo",
    "country": "Japan",
    "state": "Kagoshima",
    "city": "Kagoshima",
    "latitude": 31.80340004,
    "longitude": 130.7189941,
    "c2": "JP",
    "c3": "JPN"
  },
  {
    "iata": "KRK",
    "timezone": "Europe/Warsaw",
    "country": "Poland",
    "state": "Lesser-Poland-Voivodeship",
    "city": "Krakow",
    "latitude": 50.07770157,
    "longitude": 19.78479958,
    "c2": "PL",
    "c3": "POL"
  },
  {
    "iata": "KRT",
    "timezone": "Africa/Khartoum",
    "country": "Sudan",
    "state": "Khartoum",
    "city": "Khartoum",
    "latitude": 15.58950043,
    "longitude": 32.55319977,
    "c2": "SD",
    "c3": "SDN"
  },
  {
    "iata": "KUF",
    "timezone": "Europe/Samara",
    "country": "Russia",
    "state": "Samara",
    "city": "Samara",
    "latitude": 53.50490189,
    "longitude": 50.16429901,
    "c2": "RO",
    "c3": "ROU"
  },
  {
    "iata": "KUL",
    "timezone": "Asia/Kuala_Lumpur",
    "country": "Malaysia",
    "state": "",
    "city": "Kuala Lumpur",
    "latitude": 2.745579958,
    "longitude": 101.7099991,
    "c2": "MY",
    "c3": "MYS"
  },
  {
    "iata": "KUV",
    "timezone": "Asia/Seoul",
    "country": "South Korea",
    "state": "Jeollabuk-do",
    "city": "Kunsan",
    "latitude": 35.90380096,
    "longitude": 126.6159973,
    "c2": "GS",
    "c3": "SGS"
  },
  {
    "iata": "KWE",
    "timezone": "Asia/Shanghai",
    "country": "China",
    "state": "Guizhou",
    "city": "Guiyang",
    "latitude": 26.53849983,
    "longitude": 106.8010025,
    "c2": "CN",
    "c3": "CHN"
  },
  {
    "iata": "KWI",
    "timezone": "Asia/Kuwait",
    "country": "Kuwait",
    "state": "",
    "city": "Kuwait City",
    "latitude": 29.22660065,
    "longitude": 47.96889877,
    "c2": "KW",
    "c3": "KWT"
  },
  {
    "iata": "KWL",
    "timezone": "Asia/Shanghai",
    "country": "China",
    "state": "Guangxi",
    "city": "Guilin City",
    "latitude": 25.21809959,
    "longitude": 110.0390015,
    "c2": "CN",
    "c3": "CHN"
  },
  {
    "iata": "LAS",
    "timezone": "America/Los_Angeles",
    "country": "United States",
    "state": "Nevada",
    "city": "Las Vegas",
    "latitude": 36.08010101,
    "longitude": -115.1520004,
    "c2": "US",
    "c3": "USA"
  },
  {
    "iata": "LAX",
    "timezone": "America/Los_Angeles",
    "country": "United States",
    "state": "California",
    "city": "Los Angeles",
    "latitude": 33.94250107,
    "longitude": -118.4079971,
    "c2": "US",
    "c3": "USA"
  },
  {
    "iata": "LBA",
    "timezone": "Europe/London",
    "country": "United Kingdom",
    "state": "England",
    "city": "Leeds",
    "latitude": 53.86589813,
    "longitude": -1.660570025,
    "c2": "GB",
    "c3": "GBR"
  },
  {
    "iata": "LBB",
    "timezone": "America/Chicago",
    "country": "United States",
    "state": "Texas",
    "city": "Lubbock",
    "latitude": 33.66360092,
    "longitude": -101.822998,
    "c2": "US",
    "c3": "USA"
  },
  {
    "iata": "LCA",
    "timezone": "Asia/Nicosia",
    "country": "Cyprus",
    "state": "Larnaka",
    "city": "Larnarca",
    "latitude": 34.87509918,
    "longitude": 33.62490082,
    "c2": "CY",
    "c3": "CYP"
  },
  {
    "iata": "LCY",
    "timezone": "Europe/London",
    "country": "United Kingdom",
    "state": "England",
    "city": "London",
    "latitude": 51.50529861,
    "longitude": 0.0552779995,
    "c2": "GB",
    "c3": "GBR"
  },
  {
    "iata": "LED",
    "timezone": "Europe/Moscow",
    "country": "Russia",
    "state": "Leningradskaya-Oblast'",
    "city": "St. Petersburg",
    "latitude": 59.8003006,
    "longitude": 30.26250076,
    "c2": "RO",
    "c3": "ROU"
  },
  {
    "iata": "LEJ",
    "timezone": "Europe/Berlin",
    "country": "Germany",
    "state": "Saxony",
    "city": "Leipzig",
    "latitude": 51.43239975,
    "longitude": 12.24160004,
    "c2": "DE",
    "c3": "DEU"
  },
  {
    "iata": "LEX",
    "timezone": "America/New_York",
    "country": "United States",
    "state": "Kentucky",
    "city": "Lexington",
    "latitude": 38.03649902,
    "longitude": -84.60590363,
    "c2": "US",
    "c3": "USA"
  },
  {
    "iata": "LFT",
    "timezone": "America/Chicago",
    "country": "United States",
    "state": "Louisiana",
    "city": "Lafayette",
    "latitude": 30.20529938,
    "longitude": -91.98760223,
    "c2": "US",
    "c3": "USA"
  },
  {
    "iata": "LGA",
    "timezone": "America/New_York",
    "country": "United States",
    "state": "New York",
    "city": "New York",
    "latitude": 40.77719879,
    "longitude": -73.87259674,
    "c2": "US",
    "c3": "USA"
  },
  {
    "iata": "LGG",
    "timezone": "Europe/Brussels",
    "country": "Belgium",
    "state": "Wallonia",
    "city": "Liege",
    "latitude": 50.63740158,
    "longitude": 5.443220139,
    "c2": "BE",
    "c3": "BEL"
  },
  {
    "iata": "LGW",
    "timezone": "Europe/London",
    "country": "United Kingdom",
    "state": "England",
    "city": "London",
    "latitude": 51.14810181,
    "longitude": -0.1902779937,
    "c2": "GB",
    "c3": "GBR"
  },
  {
    "iata": "LHR",
    "timezone": "Europe/London",
    "country": "United Kingdom",
    "state": "England",
    "city": "London",
    "latitude": 51.47060013,
    "longitude": -0.4619410038,
    "c2": "GB",
    "c3": "GBR"
  },
  {
    "iata": "LIM",
    "timezone": "America/Lima",
    "country": "Peru",
    "state": "Callao",
    "city": "Lima",
    "latitude": -12.02190018,
    "longitude": -77.11430359,
    "c2": "PE",
    "c3": "PER"
  },
  {
    "iata": "LIN",
    "timezone": "Europe/Rome",
    "country": "Italy",
    "state": "Lombardy",
    "city": "Milan",
    "latitude": 45.44509888,
    "longitude": 9.276740074,
    "c2": "IT",
    "c3": "ITA"
  },
  {
    "iata": "LIS",
    "timezone": "Europe/Lisbon",
    "country": "Portugal",
    "state": "Lisbon",
    "city": "Lisbon",
    "latitude": 38.78129959,
    "longitude": -9.135919571,
    "c2": "PT",
    "c3": "PRT"
  },
  {
    "iata": "LIT",
    "timezone": "America/Chicago",
    "country": "United States",
    "state": "Arkansas",
    "city": "Little Rock",
    "latitude": 34.72940063,
    "longitude": -92.22429657,
    "c2": "US",
    "c3": "USA"
  },
  {
    "iata": "LJU",
    "timezone": "Europe/Ljubljana",
    "country": "Slovenia",
    "state": "Cerklje-na-Gorenjskem",
    "city": "Ljubljana",
    "latitude": 46.22370148,
    "longitude": 14.45759964,
    "c2": "SI",
    "c3": "SVN"
  },
  {
    "iata": "LKZ",
    "timezone": "Europe/London",
    "country": "United Kingdom",
    "state": "England",
    "city": "Lakenheath",
    "latitude": 52.40930176,
    "longitude": 0.5609999895,
    "c2": "GB",
    "c3": "GBR"
  },
  {
    "iata": "LLA",
    "timezone": "Europe/Stockholm",
    "country": "Sweden",
    "state": "Norrbotten",
    "city": "Lulea",
    "latitude": 65.54380035,
    "longitude": 22.12199974,
    "c2": "SE",
    "c3": "SWE"
  },
  {
    "iata": "LOS",
    "timezone": "Africa/Lagos",
    "country": "Nigeria",
    "state": "Lagos",
    "city": "Lagos",
    "latitude": 6.577370167,
    "longitude": 3.321160078,
    "c2": "NG",
    "c3": "NGA"
  },
  {
    "iata": "LPA",
    "timezone": "Atlantic/Canary",
    "country": "Spain",
    "state": "Canary-Islands",
    "city": "Gran Canaria Island",
    "latitude": 27.93190002,
    "longitude": -15.38659954,
    "c2": "ES",
    "c3": "ESP"
  },
  {
    "iata": "LPL",
    "timezone": "Europe/London",
    "country": "United Kingdom",
    "state": "England",
    "city": "Liverpool",
    "latitude": 53.33359909,
    "longitude": -2.849720001,
    "c2": "GB",
    "c3": "GBR"
  },
  {
    "iata": "LTK",
    "timezone": "Asia/Damascus",
    "country": "Syria",
    "state": "Latakia",
    "city": "Latakia",
    "latitude": 35.40110016,
    "longitude": 35.94869995,
    "c2": "CH",
    "c3": "CHE"
  },
  {
    "iata": "LTN",
    "timezone": "Europe/London",
    "country": "United Kingdom",
    "state": "England",
    "city": "London",
    "latitude": 51.87469864,
    "longitude": -0.3683330119,
    "c2": "GB",
    "c3": "GBR"
  },
  {
    "iata": "LUX",
    "timezone": "Europe/Luxembourg",
    "country": "Luxembourg",
    "state": "Luxembourg",
    "city": "Luxembourg",
    "latitude": 49.62659836,
    "longitude": 6.211520195,
    "c2": "LU",
    "c3": "LUX"
  },
  {
    "iata": "MAA",
    "timezone": "Asia/Kolkata",
    "country": "India",
    "state": "Tamil-Nadu",
    "city": "Chennai",
    "latitude": 12.99000549,
    "longitude": 80.16929626,
    "c2": "IN",
    "c3": "IND"
  },
  {
    "iata": "MAD",
    "timezone": "Europe/Madrid",
    "country": "Spain",
    "state": "Madrid",
    "city": "Madrid",
    "latitude": 40.4936,
    "longitude": -3.56676,
    "c2": "ES",
    "c3": "ESP"
  },
  {
    "iata": "MAN",
    "timezone": "Europe/London",
    "country": "United Kingdom",
    "state": "England",
    "city": "Manchester",
    "latitude": 53.35369873,
    "longitude": -2.274950028,
    "c2": "GB",
    "c3": "GBR"
  },
  {
    "iata": "MBA",
    "timezone": "Africa/Nairobi",
    "country": "Kenya",
    "state": "Mombasa",
    "city": "Mombasa",
    "latitude": -4.034830093,
    "longitude": 39.59420013,
    "c2": "KE",
    "c3": "KEN"
  },
  {
    "iata": "MBS",
    "timezone": "America/Detroit",
    "country": "United States",
    "state": "Michigan",
    "city": "Saginaw",
    "latitude": 43.53290176,
    "longitude": -84.07959747,
    "c2": "US",
    "c3": "USA"
  },
  {
    "iata": "MCI",
    "timezone": "America/Chicago",
    "country": "United States",
    "state": "Missouri",
    "city": "Kansas City",
    "latitude": 39.29759979,
    "longitude": -94.71389771,
    "c2": "US",
    "c3": "USA"
  },
  {
    "iata": "MCO",
    "timezone": "America/New_York",
    "country": "United States",
    "state": "Florida",
    "city": "Orlando",
    "latitude": 28.42939949,
    "longitude": -81.30899811,
    "c2": "US",
    "c3": "USA"
  },
  {
    "iata": "MCT",
    "timezone": "Asia/Muscat",
    "country": "Oman",
    "state": "Muscat",
    "city": "Muscat",
    "latitude": 23.59329987,
    "longitude": 58.28440094,
    "c2": "OM",
    "c3": "OMN"
  },
  {
    "iata": "MDL",
    "timezone": "Asia/Yangon",
    "country": "Myanmar [Burma]",
    "state": "Mandalay",
    "city": "Mandalay",
    "latitude": 21.70219994,
    "longitude": 95.97789764,
    "c2": "MM",
    "c3": "MMR"
  },
  {
    "iata": "MDW",
    "timezone": "America/Chicago",
    "country": "United States",
    "state": "Illinois",
    "city": "Chicago",
    "latitude": 41.7859993,
    "longitude": -87.75240326,
    "c2": "US",
    "c3": "USA"
  },
  {
    "iata": "MED",
    "timezone": "Asia/Riyadh",
    "country": "Saudi Arabia",
    "state": "Al-Madinah-al-Munawwarah",
    "city": "Medina",
    "latitude": 24.55340004,
    "longitude": 39.70510101,
    "c2": "SA",
    "c3": "SAU"
  },
  {
    "iata": "MEL",
    "timezone": "Australia/Melbourne",
    "country": "Australia",
    "state": "Victoria",
    "city": "Melbourne",
    "latitude": -37.6733017,
    "longitude": 144.8430023,
    "c2": "AU",
    "c3": "AUS"
  },
  {
    "iata": "MEM",
    "timezone": "America/Chicago",
    "country": "United States",
    "state": "Tennessee",
    "city": "Memphis",
    "latitude": 35.04240036,
    "longitude": -89.97669983,
    "c2": "US",
    "c3": "USA"
  },
  {
    "iata": "MEX",
    "timezone": "America/Mexico_City",
    "country": "Mexico",
    "state": "Mexico-City",
    "city": "Mexico City",
    "latitude": 19.43630028,
    "longitude": -99.07209778,
    "c2": "MX",
    "c3": "MEX"
  },
  {
    "iata": "MFM",
    "timezone": "Asia/Macau",
    "country": "Macau",
    "state": "",
    "city": "Taipa",
    "latitude": 22.14959908,
    "longitude": 113.5920029,
    "c2": "MO",
    "c3": "MAC"
  },
  {
    "iata": "MGM",
    "timezone": "America/Chicago",
    "country": "United States",
    "state": "Alabama",
    "city": "Montgomery",
    "latitude": 32.30059814,
    "longitude": -86.39399719,
    "c2": "US",
    "c3": "USA"
  },
  {
    "iata": "MHD",
    "timezone": "Asia/Tehran",
    "country": "Iran",
    "state": "Razavi-Khorasan",
    "city": "Mashhad",
    "latitude": 36.23519897,
    "longitude": 59.64099884,
    "c2": "ID",
    "c3": "IDN"
  },
  {
    "iata": "MHT",
    "timezone": "America/New_York",
    "country": "United States",
    "state": "New Hampshire",
    "city": "Manchester",
    "latitude": 42.93259811,
    "longitude": -71.43569946,
    "c2": "US",
    "c3": "USA"
  },
  {
    "iata": "MHZ",
    "timezone": "Europe/London",
    "country": "United Kingdom",
    "state": "England",
    "city": "Mildenhall",
    "latitude": 52.36190033,
    "longitude": 0.4864059985,
    "c2": "GB",
    "c3": "GBR"
  },
  {
    "iata": "MIA",
    "timezone": "America/New_York",
    "country": "United States",
    "state": "Florida",
    "city": "Miami",
    "latitude": 25.79319954,
    "longitude": -80.29060364,
    "c2": "US",
    "c3": "USA"
  },
  {
    "iata": "MKE",
    "timezone": "America/Chicago",
    "country": "United States",
    "state": "Wisconsin",
    "city": "Milwaukee",
    "latitude": 42.94720078,
    "longitude": -87.89659882,
    "c2": "US",
    "c3": "USA"
  },
  {
    "iata": "MLA",
    "timezone": "Europe/Malta",
    "country": "Malta",
    "state": "Luqa",
    "city": "Luqa",
    "latitude": 35.857498,
    "longitude": 14.4775,
    "c2": "MT",
    "c3": "MLT"
  },
  {
    "iata": "MLE",
    "timezone": "Indian/Maldives",
    "country": "Maldives",
    "state": "Kaafu-Atoll",
    "city": "Male",
    "latitude": 4.191830158,
    "longitude": 73.52909851,
    "c2": "MV",
    "c3": "MDV"
  },
  {
    "iata": "MLI",
    "timezone": "America/Chicago",
    "country": "United States",
    "state": "Illinois",
    "city": "Moline",
    "latitude": 41.44850159,
    "longitude": -90.50749969,
    "c2": "US",
    "c3": "USA"
  },
  {
    "iata": "MLU",
    "timezone": "America/Chicago",
    "country": "United States",
    "state": "Louisiana",
    "city": "Monroe",
    "latitude": 32.51089859,
    "longitude": -92.03769684,
    "c2": "US",
    "c3": "USA"
  },
  {
    "iata": "MMX",
    "timezone": "Europe/Stockholm",
    "country": "Sweden",
    "state": "Skane",
    "city": "Malmo",
    "latitude": 55.53630536,
    "longitude": 13.37619781,
    "c2": "SE",
    "c3": "SWE"
  },
  {
    "iata": "MNL",
    "timezone": "Asia/Manila",
    "country": "Philippines",
    "state": "",
    "city": "Manila",
    "latitude": 14.50860024,
    "longitude": 121.0199966,
    "c2": "PH",
    "c3": "PHL"
  },
  {
    "iata": "MOB",
    "timezone": "America/Chicago",
    "country": "United States",
    "state": "Alabama",
    "city": "Mobile",
    "latitude": 30.69120026,
    "longitude": -88.24279785,
    "c2": "US",
    "c3": "USA"
  },
  {
    "iata": "MRS",
    "timezone": "Europe/Paris",
    "country": "France",
    "state": "Provence-Alpes-Cote-d'Azur",
    "city": "Marseille",
    "latitude": 43.43927192,
    "longitude": 5.221424103,
    "c2": "FR",
    "c3": "FRA"
  },
  {
    "iata": "MSN",
    "timezone": "America/Chicago",
    "country": "United States",
    "state": "Wisconsin",
    "city": "Madison",
    "latitude": 43.13990021,
    "longitude": -89.33750153,
    "c2": "US",
    "c3": "USA"
  },
  {
    "iata": "MSP",
    "timezone": "America/Chicago",
    "country": "United States",
    "state": "Minnesota",
    "city": "Minneapolis",
    "latitude": 44.88199997,
    "longitude": -93.22180176,
    "c2": "US",
    "c3": "USA"
  },
  {
    "iata": "MSQ",
    "timezone": "Europe/Minsk",
    "country": "Belarus",
    "state": "Minsk",
    "city": "Minsk",
    "latitude": 53.88249969,
    "longitude": 28.03070068,
    "c2": "BY",
    "c3": "BLR"
  },
  {
    "iata": "MST",
    "timezone": "Europe/Amsterdam",
    "country": "Netherlands",
    "state": "Limburg",
    "city": "Maastricht",
    "latitude": 50.9117012,
    "longitude": 5.770140171,
    "c2": "NL",
    "c3": "NLD"
  },
  {
    "iata": "MSY",
    "timezone": "America/Chicago",
    "country": "United States",
    "state": "Louisiana",
    "city": "New Orleans",
    "latitude": 29.99340057,
    "longitude": -90.25800323,
    "c2": "US",
    "c3": "USA"
  },
  {
    "iata": "MTY",
    "timezone": "America/Monterrey",
    "country": "Mexico",
    "state": "Nuevo-Leon",
    "city": "Monterrey",
    "latitude": 25.7784996,
    "longitude": -100.1070023,
    "c2": "MX",
    "c3": "MEX"
  },
  {
    "iata": "MUC",
    "timezone": "Europe/Berlin",
    "country": "Germany",
    "state": "Bavaria",
    "city": "Munich",
    "latitude": 48.35380173,
    "longitude": 11.78610039,
    "c2": "DE",
    "c3": "DEU"
  },
  {
    "iata": "MVD",
    "timezone": "America/Montevideo",
    "country": "Uruguay",
    "state": "Canelones",
    "city": "Montevideo",
    "latitude": -34.83840179,
    "longitude": -56.03079987,
    "c2": "UY",
    "c3": "URY"
  },
  {
    "iata": "MXP",
    "timezone": "Europe/Rome",
    "country": "Italy",
    "state": "Lombardy",
    "city": "Milan",
    "latitude": 45.63059998,
    "longitude": 8.728110313,
    "c2": "IT",
    "c3": "ITA"
  },
  {
    "iata": "MYR",
    "timezone": "America/New_York",
    "country": "United States",
    "state": "South Carolina",
    "city": "Myrtle Beach",
    "latitude": 33.67969894,
    "longitude": -78.92829895,
    "c2": "US",
    "c3": "USA"
  },
  {
    "iata": "NAP",
    "timezone": "Europe/Rome",
    "country": "Italy",
    "state": "Campania",
    "city": "Napoli",
    "latitude": 40.88600159,
    "longitude": 14.29080009,
    "c2": "IT",
    "c3": "ITA"
  },
  {
    "iata": "NAS",
    "timezone": "America/Nassau",
    "country": "Bahamas",
    "state": "New-Providence",
    "city": "Nassau",
    "latitude": 25.03899956,
    "longitude": -77.46620178,
    "c2": "BS",
    "c3": "BHS"
  },
  {
    "iata": "NAV",
    "timezone": "Europe/Istanbul",
    "country": "Turkey",
    "state": "Nevsehir",
    "city": "Nevsehir",
    "latitude": 38.77190018,
    "longitude": 34.53450012,
    "c2": "TR",
    "c3": "TUR"
  },
  {
    "iata": "NAY",
    "timezone": "Asia/Shanghai",
    "country": "China",
    "state": "Beijing",
    "city": "Beijing",
    "latitude": 39.78279877,
    "longitude": 116.3880005,
    "c2": "CN",
    "c3": "CHN"
  },
  {
    "iata": "NBE",
    "timezone": "Africa/Tunis",
    "country": "Tunisia",
    "state": "Susah",
    "city": "Enfidha",
    "latitude": 36.075833,
    "longitude": 10.438611,
    "c2": "TN",
    "c3": "TUN"
  },
  {
    "iata": "NBO",
    "timezone": "Africa/Nairobi",
    "country": "Kenya",
    "state": "Nairobi-Area",
    "city": "Nairobi",
    "latitude": -1.319239974,
    "longitude": 36.92779922,
    "c2": "KE",
    "c3": "KEN"
  },
  {
    "iata": "NCE",
    "timezone": "Europe/Paris",
    "country": "France",
    "state": "Provence-Alpes-Cote-d'Azur",
    "city": "Nice",
    "latitude": 43.65840149,
    "longitude": 7.215869904,
    "c2": "FR",
    "c3": "FRA"
  },
  {
    "iata": "NCL",
    "timezone": "Europe/London",
    "country": "United Kingdom",
    "state": "England",
    "city": "Newcastle",
    "latitude": 55.03749847,
    "longitude": -1.691669941,
    "c2": "GB",
    "c3": "GBR"
  },
  {
    "iata": "NGB",
    "timezone": "Asia/Shanghai",
    "country": "China",
    "state": "Zhejiang",
    "city": "Ningbo",
    "latitude": 29.82670021,
    "longitude": 121.461998,
    "c2": "CN",
    "c3": "CHN"
  },
  {
    "iata": "NGO",
    "timezone": "Asia/Tokyo",
    "country": "Japan",
    "state": "Aichi",
    "city": "Tokoname",
    "latitude": 34.85839844,
    "longitude": 136.8049927,
    "c2": "JP",
    "c3": "JPN"
  },
  {
    "iata": "NKG",
    "timezone": "Asia/Shanghai",
    "country": "China",
    "state": "Jiangsu",
    "city": "Nanjing",
    "latitude": 31.74200058,
    "longitude": 118.8619995,
    "c2": "CN",
    "c3": "CHN"
  },
  {
    "iata": "NNG",
    "timezone": "Asia/Shanghai",
    "country": "China",
    "state": "Guangxi",
    "city": "Nanning",
    "latitude": 22.60829926,
    "longitude": 108.1719971,
    "c2": "CN",
    "c3": "CHN"
  },
  {
    "iata": "NRT",
    "timezone": "Asia/Tokyo",
    "country": "Japan",
    "state": "Chiba",
    "city": "Tokyo",
    "latitude": 35.76470184,
    "longitude": 140.3860016,
    "c2": "JP",
    "c3": "JPN"
  },
  {
    "iata": "NUE",
    "timezone": "Europe/Berlin",
    "country": "Germany",
    "state": "Bavaria",
    "city": "Nuremberg",
    "latitude": 49.49869919,
    "longitude": 11.06690025,
    "c2": "DE",
    "c3": "DEU"
  },
  {
    "iata": "OAK",
    "timezone": "America/Los_Angeles",
    "country": "United States",
    "state": "California",
    "city": "Oakland",
    "latitude": 37.72129822,
    "longitude": -122.2210007,
    "c2": "US",
    "c3": "USA"
  },
  {
    "iata": "ODS",
    "timezone": "Europe/Kyiv",
    "country": "Ukraine",
    "state": "Odessa",
    "city": "Odessa",
    "latitude": 46.42679977,
    "longitude": 30.67650032,
    "c2": "UA",
    "c3": "UKR"
  },
  {
    "iata": "OKA",
    "timezone": "Asia/Tokyo",
    "country": "Japan",
    "state": "Okinawa",
    "city": "Naha",
    "latitude": 26.19580078,
    "longitude": 127.6460037,
    "c2": "JP",
    "c3": "JPN"
  },
  {
    "iata": "OKC",
    "timezone": "America/Chicago",
    "country": "United States",
    "state": "Oklahoma",
    "city": "Oklahoma City",
    "latitude": 35.39310074,
    "longitude": -97.60070038,
    "c2": "US",
    "c3": "USA"
  },
  {
    "iata": "OKO",
    "timezone": "Asia/Tokyo",
    "country": "Japan",
    "state": "Tokyo",
    "city": "Fussa",
    "latitude": 35.74850082,
    "longitude": 139.3480072,
    "c2": "JP",
    "c3": "JPN"
  },
  {
    "iata": "ONT",
    "timezone": "America/Los_Angeles",
    "country": "United States",
    "state": "California",
    "city": "Ontario",
    "latitude": 34.05599976,
    "longitude": -117.6009979,
    "c2": "US",
    "c3": "USA"
  },
  {
    "iata": "OPO",
    "timezone": "Europe/Lisbon",
    "country": "Portugal",
    "state": "Porto",
    "city": "Porto",
    "latitude": 41.24810028,
    "longitude": -8.681389809,
    "c2": "PT",
    "c3": "PRT"
  },
  {
    "iata": "ORD",
    "timezone": "America/Chicago",
    "country": "United States",
    "state": "Illinois",
    "city": "Chicago",
    "latitude": 41.97859955,
    "longitude": -87.90480042,
    "c2": "US",
    "c3": "USA"
  },
  {
    "iata": "ORF",
    "timezone": "America/New_York",
    "country": "United States",
    "state": "Virginia",
    "city": "Norfolk",
    "latitude": 36.89459991,
    "longitude": -76.20120239,
    "c2": "US",
    "c3": "USA"
  },
  {
    "iata": "ORK",
    "timezone": "Europe/Dublin",
    "country": "Ireland",
    "state": "Munster",
    "city": "Cork",
    "latitude": 51.84130096,
    "longitude": -8.491109848,
    "c2": "IE",
    "c3": "IRL"
  },
  {
    "iata": "ORY",
    "timezone": "Europe/Paris",
    "country": "France",
    "state": "Ile-de-France",
    "city": "Paris",
    "latitude": 48.72529984,
    "longitude": 2.359440088,
    "c2": "FR",
    "c3": "FRA"
  },
  {
    "iata": "OSL",
    "timezone": "Europe/Oslo",
    "country": "Norway",
    "state": "Akershus",
    "city": "Oslo",
    "latitude": 60.19390106,
    "longitude": 11.10039997,
    "c2": "NO",
    "c3": "NOR"
  },
  {
    "iata": "OSN",
    "timezone": "Asia/Seoul",
    "country": "South Korea",
    "state": "Gyeonggi-do",
    "city": "",
    "latitude": 37.09059906,
    "longitude": 127.0299988,
    "c2": "GS",
    "c3": "SGS"
  },
  {
    "iata": "OTP",
    "timezone": "Europe/Bucharest",
    "country": "Romania",
    "state": "Ilfov",
    "city": "Bucharest",
    "latitude": 44.57220078,
    "longitude": 26.10219955,
    "c2": "RO",
    "c3": "ROU"
  },
  {
    "iata": "PBI",
    "timezone": "America/New_York",
    "country": "United States",
    "state": "Florida",
    "city": "West Palm Beach",
    "latitude": 26.68320084,
    "longitude": -80.09559631,
    "c2": "US",
    "c3": "USA"
  },
  {
    "iata": "PDL",
    "timezone": "Atlantic/Azores",
    "country": "Portugal",
    "state": "Azores",
    "city": "Ponta Delgada",
    "latitude": 37.74119949,
    "longitude": -25.69790077,
    "c2": "PT",
    "c3": "PRT"
  },
  {
    "iata": "PDV",
    "timezone": "Europe/Sofia",
    "country": "Bulgaria",
    "state": "Plovdiv",
    "city": "Plovdiv",
    "latitude": 42.06779861,
    "longitude": 24.85079956,
    "c2": "BG",
    "c3": "BGR"
  },
  {
    "iata": "PDX",
    "timezone": "America/Los_Angeles",
    "country": "United States",
    "state": "Oregon",
    "city": "Portland",
    "latitude": 45.58869934,
    "longitude": -122.5979996,
    "c2": "US",
    "c3": "USA"
  },
  {
    "iata": "PEK",
    "timezone": "Asia/Shanghai",
    "country": "China",
    "state": "Beijing",
    "city": "Beijing",
    "latitude": 40.08010101,
    "longitude": 116.5849991,
    "c2": "CN",
    "c3": "CHN"
  },
  {
    "iata": "PER",
    "timezone": "Australia/Perth",
    "country": "Australia",
    "state": "Western Australia",
    "city": "Perth",
    "latitude": -31.94029999,
    "longitude": 115.9670029,
    "c2": "AU",
    "c3": "AUS"
  },
  {
    "iata": "PFO",
    "timezone": "Asia/Nicosia",
    "country": "Cyprus",
    "state": "Pafos",
    "city": "Paphos",
    "latitude": 34.7179985,
    "longitude": 32.4856987,
    "c2": "CY",
    "c3": "CYP"
  },
  {
    "iata": "PHF",
    "timezone": "America/New_York",
    "country": "United States",
    "state": "Virginia",
    "city": "Newport News",
    "latitude": 37.13190079,
    "longitude": -76.49299622,
    "c2": "US",
    "c3": "USA"
  },
  {
    "iata": "PHL",
    "timezone": "America/New_York",
    "country": "United States",
    "state": "Pennsylvania",
    "city": "Philadelphia",
    "latitude": 39.87189865,
    "longitude": -75.2410965,
    "c2": "US",
    "c3": "USA"
  },
  {
    "iata": "PHX",
    "timezone": "America/Phoenix",
    "country": "United States",
    "state": "Arizona",
    "city": "Phoenix",
    "latitude": 33.43429947,
    "longitude": -112.012001,
    "c2": "US",
    "c3": "USA"
  },
  {
    "iata": "PIA",
    "timezone": "America/Chicago",
    "country": "United States",
    "state": "Illinois",
    "city": "Peoria",
    "latitude": 40.66419983,
    "longitude": -89.69329834,
    "c2": "US",
    "c3": "USA"
  },
  {
    "iata": "PIT",
    "timezone": "America/New_York",
    "country": "United States",
    "state": "Pennsylvania",
    "city": "Pittsburgh",
    "latitude": 40.49150085,
    "longitude": -80.23290253,
    "c2": "US",
    "c3": "USA"
  },
  {
    "iata": "PMI",
    "timezone": "Europe/Madrid",
    "country": "Spain",
    "state": "Balearic Islands",
    "city": "Palma De Mallorca",
    "latitude": 39.55170059,
    "longitude": 2.738810062,
    "c2": "ES",
    "c3": "ESP"
  },
  {
    "iata": "PMO",
    "timezone": "Europe/Rome",
    "country": "Italy",
    "state": "Sicily",
    "city": "Palermo",
    "latitude": 38.17599869,
    "longitude": 13.0909996,
    "c2": "IT",
    "c3": "ITA"
  },
  {
    "iata": "PNH",
    "timezone": "Asia/Phnom_Penh",
    "country": "Cambodia",
    "state": "",
    "city": "Phnom Penh",
    "latitude": 11.54660034,
    "longitude": 104.8440018,
    "c2": "KH",
    "c3": "KHM"
  },
  {
    "iata": "POM",
    "timezone": "Pacific/Port_Moresby",
    "country": "Papua New Guinea",
    "state": "National Capital",
    "city": "Port Moresby",
    "latitude": -9.443380356,
    "longitude": 147.2200012,
    "c2": "PG",
    "c3": "PNG"
  },
  {
    "iata": "PRG",
    "timezone": "Europe/Prague",
    "country": "Czech Republic",
    "state": "Praha",
    "city": "Prague",
    "latitude": 50.10079956,
    "longitude": 14.26000023,
    "c2": "CZ",
    "c3": "CZE"
  },
  {
    "iata": "PRN",
    "timezone": "Europe/Belgrade",
    "country": "Kosovo",
    "state": "Pristina",
    "city": "Prishtina",
    "latitude": 42.57279968,
    "longitude": 21.03580093,
    "c2": "KR",
    "c3": "KOR"
  },
  {
    "iata": "PSA",
    "timezone": "Europe/Rome",
    "country": "Italy",
    "state": "Tuscany",
    "city": "Pisa",
    "latitude": 43.68389893,
    "longitude": 10.3927002,
    "c2": "IT",
    "c3": "ITA"
  },
  {
    "iata": "PTY",
    "timezone": "America/Panama",
    "country": "Panama",
    "state": "Panama",
    "city": "Tocumen",
    "latitude": 9.071359634,
    "longitude": -79.38349915,
    "c2": "PA",
    "c3": "PAN"
  },
  {
    "iata": "PUS",
    "timezone": "Asia/Seoul",
    "country": "South Korea",
    "state": "Busan",
    "city": "Busan",
    "latitude": 35.17950058,
    "longitude": 128.9380035,
    "c2": "GS",
    "c3": "SGS"
  },
  {
    "iata": "PVG",
    "timezone": "Asia/Shanghai",
    "country": "China",
    "state": "Shanghai",
    "city": "Shanghai",
    "latitude": 31.14340019,
    "longitude": 121.8050003,
    "c2": "CN",
    "c3": "CHN"
  },
  {
    "iata": "PVR",
    "timezone": "America/Bahia_Banderas",
    "country": "Mexico",
    "state": "Jalisco",
    "city": "Puerto Vallarta",
    "latitude": 20.68009949,
    "longitude": -105.2539978,
    "c2": "MX",
    "c3": "MEX"
  },
  {
    "iata": "PWM",
    "timezone": "America/New_York",
    "country": "United States",
    "state": "Maine",
    "city": "Portland",
    "latitude": 43.64619827,
    "longitude": -70.30930328,
    "c2": "US",
    "c3": "USA"
  },
  {
    "iata": "RDU",
    "timezone": "America/New_York",
    "country": "United States",
    "state": "North Carolina",
    "city": "Raleigh/Durham",
    "latitude": 35.87760162,
    "longitude": -78.78749847,
    "c2": "US",
    "c3": "USA"
  },
  {
    "iata": "REP",
    "timezone": "Asia/Phnom_Penh",
    "country": "Cambodia",
    "state": "Siem-Reap",
    "city": "Siem Reap",
    "latitude": 13.41069984,
    "longitude": 103.8130035,
    "c2": "KH",
    "c3": "KHM"
  },
  {
    "iata": "RFD",
    "timezone": "America/Chicago",
    "country": "United States",
    "state": "Illinois",
    "city": "Chicago/Rockford",
    "latitude": 42.19540024,
    "longitude": -89.09719849,
    "c2": "US",
    "c3": "USA"
  },
  {
    "iata": "RGN",
    "timezone": "Asia/Yangon",
    "country": "Myanmar [Burma]",
    "state": "Yangon",
    "city": "Yangon",
    "latitude": 16.90730095,
    "longitude": 96.1332016,
    "c2": "MM",
    "c3": "MMR"
  },
  {
    "iata": "RIC",
    "timezone": "America/New_York",
    "country": "United States",
    "state": "Virginia",
    "city": "Richmond",
    "latitude": 37.50519943,
    "longitude": -77.31970215,
    "c2": "US",
    "c3": "USA"
  },
  {
    "iata": "RIX",
    "timezone": "Europe/Riga",
    "country": "Latvia",
    "state": "Marupe",
    "city": "Riga",
    "latitude": 56.92359924,
    "longitude": 23.97109985,
    "c2": "LV",
    "c3": "LVA"
  },
  {
    "iata": "RMS",
    "timezone": "Europe/Berlin",
    "country": "Germany",
    "state": "Rheinland-Pfalz",
    "city": "Ramstein",
    "latitude": 49.43690109,
    "longitude": 7.600279808,
    "c2": "DE",
    "c3": "DEU"
  },
  {
    "iata": "RNO",
    "timezone": "America/Los_Angeles",
    "country": "United States",
    "state": "Nevada",
    "city": "Reno",
    "latitude": 39.49909973,
    "longitude": -119.7679977,
    "c2": "US",
    "c3": "USA"
  },
  {
    "iata": "ROA",
    "timezone": "America/New_York",
    "country": "United States",
    "state": "Virginia",
    "city": "Roanoke",
    "latitude": 37.32550049,
    "longitude": -79.97540283,
    "c2": "US",
    "c3": "USA"
  },
  {
    "iata": "ROC",
    "timezone": "America/New_York",
    "country": "United States",
    "state": "New York",
    "city": "Rochester",
    "latitude": 43.1189003,
    "longitude": -77.67240143,
    "c2": "US",
    "c3": "USA"
  },
  {
    "iata": "RST",
    "timezone": "America/Chicago",
    "country": "United States",
    "state": "Minnesota",
    "city": "Rochester",
    "latitude": 43.90829849,
    "longitude": -92.5,
    "c2": "US",
    "c3": "USA"
  },
  {
    "iata": "RSW",
    "timezone": "America/New_York",
    "country": "United States",
    "state": "Florida",
    "city": "Fort Myers",
    "latitude": 26.53619957,
    "longitude": -81.75520325,
    "c2": "US",
    "c3": "USA"
  },
  {
    "iata": "RUH",
    "timezone": "Asia/Riyadh",
    "country": "Saudi Arabia",
    "state": "",
    "city": "Riyadh",
    "latitude": 24.95759964,
    "longitude": 46.69879913,
    "c2": "SA",
    "c3": "SAU"
  },
  {
    "iata": "SAN",
    "timezone": "America/Los_Angeles",
    "country": "United States",
    "state": "California",
    "city": "San Diego",
    "latitude": 32.73360062,
    "longitude": -117.1900024,
    "c2": "US",
    "c3": "USA"
  },
  {
    "iata": "SAT",
    "timezone": "America/Chicago",
    "country": "United States",
    "state": "Texas",
    "city": "San Antonio",
    "latitude": 29.53370094,
    "longitude": -98.46980286,
    "c2": "US",
    "c3": "USA"
  },
  {
    "iata": "SAW",
    "timezone": "Europe/Istanbul",
    "country": "Turkey",
    "state": "Istanbul",
    "city": "Istanbul",
    "latitude": 40.89860153,
    "longitude": 29.30920029,
    "c2": "TR",
    "c3": "TUR"
  },
  {
    "iata": "SBN",
    "timezone": "America/Indiana/Indianapolis",
    "country": "United States",
    "state": "Indiana",
    "city": "South Bend",
    "latitude": 41.70869827,
    "longitude": -86.31729889,
    "c2": "US",
    "c3": "USA"
  },
  {
    "iata": "SCL",
    "timezone": "America/Santiago",
    "country": "Chile",
    "state": "Santiago Metropolitan Region",
    "city": "Santiago",
    "latitude": -33.39300156,
    "longitude": -70.78579712,
    "c2": "CL",
    "c3": "CHL"
  },
  {
    "iata": "SCQ",
    "timezone": "Europe/Madrid",
    "country": "Spain",
    "state": "Galicia",
    "city": "Santiago de Compostela",
    "latitude": 42.89630127,
    "longitude": -8.415140152,
    "c2": "ES",
    "c3": "ESP"
  },
  {
    "iata": "SDF",
    "timezone": "America/Kentucky/Louisville",
    "country": "United States",
    "state": "Kentucky",
    "city": "Louisville",
    "latitude": 38.17440033,
    "longitude": -85.73600006,
    "c2": "US",
    "c3": "USA"
  },
  {
    "iata": "SDQ",
    "timezone": "America/Santo_Domingo",
    "country": "Dominican Republic",
    "state": "Nacional",
    "city": "Santo Domingo",
    "latitude": 18.42970085,
    "longitude": -69.66889954,
    "c2": "DO",
    "c3": "DOM"
  },
  {
    "iata": "SEA",
    "timezone": "America/Los_Angeles",
    "country": "United States",
    "state": "Washington",
    "city": "Seattle",
    "latitude": 47.44900131,
    "longitude": -122.3089981,
    "c2": "US",
    "c3": "USA"
  },
  {
    "iata": "SFB",
    "timezone": "America/New_York",
    "country": "United States",
    "state": "Florida",
    "city": "Orlando",
    "latitude": 28.77759933,
    "longitude": -81.23750305,
    "c2": "US",
    "c3": "USA"
  },
  {
    "iata": "SFO",
    "timezone": "America/Los_Angeles",
    "country": "United States",
    "state": "California",
    "city": "San Francisco",
    "latitude": 37.61899948,
    "longitude": -122.375,
    "c2": "US",
    "c3": "USA"
  },
  {
    "iata": "SGF",
    "timezone": "America/Chicago",
    "country": "United States",
    "state": "Missouri",
    "city": "Springfield",
    "latitude": 37.24570084,
    "longitude": -93.38860321,
    "c2": "US",
    "c3": "USA"
  },
  {
    "iata": "SGN",
    "timezone": "Asia/Ho_Chi_Minh",
    "country": "Vietnam",
    "state": "Ho Chi Minh City",
    "city": "Ho Chi Minh City",
    "latitude": 10.81879997,
    "longitude": 106.6520004,
    "c2": "VN",
    "c3": "VNM"
  },
  {
    "iata": "SHA",
    "timezone": "Asia/Shanghai",
    "country": "China",
    "state": "Shanghai",
    "city": "Shanghai",
    "latitude": 31.19790077,
    "longitude": 121.3359985,
    "c2": "CN",
    "c3": "CHN"
  },
  {
    "iata": "SHE",
    "timezone": "Asia/Shanghai",
    "country": "China",
    "state": "Liaoning",
    "city": "Shenyang",
    "latitude": 41.63980103,
    "longitude": 123.4830017,
    "c2": "CN",
    "c3": "CHN"
  },
  {
    "iata": "SHJ",
    "timezone": "Asia/Dubai",
    "country": "United Arab Emirates",
    "state": "Ash-Shariqah",
    "city": "Sharjah",
    "latitude": 25.32859993,
    "longitude": 55.51720047,
    "c2": "AE",
    "c3": "ARE"
  },
  {
    "iata": "SHV",
    "timezone": "America/Chicago",
    "country": "United States",
    "state": "Louisiana",
    "city": "Shreveport",
    "latitude": 32.44660187,
    "longitude": -93.82559967,
    "c2": "US",
    "c3": "USA"
  },
  {
    "iata": "SIN",
    "timezone": "Asia/Singapore",
    "country": "Singapore",
    "state": "North-East",
    "city": "Singapore",
    "latitude": 1.350190043,
    "longitude": 103.9940033,
    "c2": "SG",
    "c3": "SGP"
  },
  {
    "iata": "SIP",
    "timezone": "Europe/Simferopol",
    "country": "Russia",
    "state": "Republic-of-Crimea",
    "city": "Simferopol",
    "latitude": 45.05220032,
    "longitude": 33.97510147,
    "c2": "RO",
    "c3": "ROU"
  },
  {
    "iata": "SIP",
    "timezone": "Europe/Simferopol",
    "country": "Ukraine",
    "state": "Republic-of-Crimea",
    "city": "Simferopol",
    "latitude": 45.05220032,
    "longitude": 33.97510147,
    "c2": "UA",
    "c3": "UKR"
  },
  {
    "iata": "SJC",
    "timezone": "America/Los_Angeles",
    "country": "United States",
    "state": "California",
    "city": "San Jose",
    "latitude": 37.36259842,
    "longitude": -121.9290009,
    "c2": "US",
    "c3": "USA"
  },
  {
    "iata": "SJD",
    "timezone": "America/Mazatlan",
    "country": "Mexico",
    "state": "Baja-California-Sur",
    "city": "San Jose del Cabo",
    "latitude": 23.15180016,
    "longitude": -109.7210007,
    "c2": "MX",
    "c3": "MEX"
  },
  {
    "iata": "SJJ",
    "timezone": "Europe/Sarajevo",
    "country": "Bosnia and Herzegovina",
    "state": "Federation-of-B&H",
    "city": "Sarajevo",
    "latitude": 43.82460022,
    "longitude": 18.3314991,
    "c2": "BA",
    "c3": "BIH"
  },
  {
    "iata": "SJU",
    "timezone": "America/Puerto_Rico",
    "country": "Puerto Rico",
    "state": "Carolina",
    "city": "San Juan",
    "latitude": 18.43939972,
    "longitude": -66.00180054,
    "c2": "PR",
    "c3": "PRI"
  },
  {
    "iata": "SKG",
    "timezone": "Europe/Athens",
    "country": "Greece",
    "state": "Central-Macedonia",
    "city": "Thessaloniki",
    "latitude": 40.5196991,
    "longitude": 22.97089958,
    "c2": "GR",
    "c3": "GRC"
  },
  {
    "iata": "SLC",
    "timezone": "America/Denver",
    "country": "United States",
    "state": "Utah",
    "city": "Salt Lake City",
    "latitude": 40.78839874,
    "longitude": -111.9779968,
    "c2": "US",
    "c3": "USA"
  },
  {
    "iata": "SLV",
    "timezone": "Asia/Kolkata",
    "country": "India",
    "state": "Himachal-Pradesh",
    "city": "",
    "latitude": 31.08180046,
    "longitude": 77.06800079,
    "c2": "IN",
    "c3": "IND"
  },
  {
    "iata": "SMF",
    "timezone": "America/Los_Angeles",
    "country": "United States",
    "state": "California",
    "city": "Sacramento",
    "latitude": 38.69540024,
    "longitude": -121.5910034,
    "c2": "US",
    "c3": "USA"
  },
  {
    "iata": "SNA",
    "timezone": "America/Los_Angeles",
    "country": "United States",
    "state": "California",
    "city": "Santa Ana",
    "latitude": 33.67570114,
    "longitude": -117.8679962,
    "c2": "US",
    "c3": "USA"
  },
  {
    "iata": "SNN",
    "timezone": "Europe/Dublin",
    "country": "Ireland",
    "state": "Munster",
    "city": "Shannon",
    "latitude": 52.70199966,
    "longitude": -8.924819946,
    "c2": "IE",
    "c3": "IRL"
  },
  {
    "iata": "SOF",
    "timezone": "Europe/Sofia",
    "country": "Bulgaria",
    "state": "Sofia-Capital",
    "city": "Sofia",
    "latitude": 42.69669342,
    "longitude": 23.41143608,
    "c2": "BG",
    "c3": "BGR"
  },
  {
    "iata": "SOU",
    "timezone": "Europe/London",
    "country": "United Kingdom",
    "state": "England",
    "city": "Southampton",
    "latitude": 50.95029831,
    "longitude": -1.35679996,
    "c2": "GB",
    "c3": "GBR"
  },
  {
    "iata": "SPI",
    "timezone": "America/Chicago",
    "country": "United States",
    "state": "Illinois",
    "city": "Springfield",
    "latitude": 39.84410095,
    "longitude": -89.67790222,
    "c2": "US",
    "c3": "USA"
  },
  {
    "iata": "SPS",
    "timezone": "America/Chicago",
    "country": "United States",
    "state": "Texas",
    "city": "Wichita Falls",
    "latitude": 33.98880005,
    "longitude": -98.49189758,
    "c2": "US",
    "c3": "USA"
  },
  {
    "iata": "SRQ",
    "timezone": "America/New_York",
    "country": "United States",
    "state": "Florida",
    "city": "Sarasota/Bradenton",
    "latitude": 27.39539909,
    "longitude": -82.55439758,
    "c2": "US",
    "c3": "USA"
  },
  {
    "iata": "SSA",
    "timezone": "America/Bahia",
    "country": "Brazil",
    "state": "Bahia",
    "city": "Salvador",
    "latitude": -12.06835504,
    "longitude": -45.71145441,
    "c2": "BR",
    "c3": "BRA"
  },
  {
    "iata": "STL",
    "timezone": "America/Chicago",
    "country": "United States",
    "state": "Missouri",
    "city": "St Louis",
    "latitude": 38.74869919,
    "longitude": -90.37000275,
    "c2": "US",
    "c3": "USA"
  },
  {
    "iata": "STN",
    "timezone": "Europe/London",
    "country": "United Kingdom",
    "state": "England",
    "city": "London",
    "latitude": 51.88499832,
    "longitude": 0.2349999994,
    "c2": "GB",
    "c3": "GBR"
  },
  {
    "iata": "STR",
    "timezone": "Europe/Berlin",
    "country": "Germany",
    "state": "Baden-Wuerttemberg",
    "city": "Stuttgart",
    "latitude": 48.68989944,
    "longitude": 9.221960068,
    "c2": "DE",
    "c3": "DEU"
  },
  {
    "iata": "SUB",
    "timezone": "Asia/Jakarta",
    "country": "Indonesia",
    "state": "East-Java",
    "city": "Surabaya",
    "latitude": -7.379829884,
    "longitude": 112.7870026,
    "c2": "ID",
    "c3": "IDN"
  },
  {
    "iata": "SUX",
    "timezone": "America/Chicago",
    "country": "United States",
    "state": "Iowa",
    "city": "Sioux City",
    "latitude": 42.40259933,
    "longitude": -96.38439941,
    "c2": "US",
    "c3": "USA"
  },
  {
    "iata": "SVG",
    "timezone": "Europe/Oslo",
    "country": "Norway",
    "state": "Rogaland",
    "city": "Stavanger",
    "latitude": 58.87670136,
    "longitude": 5.63778019,
    "c2": "NO",
    "c3": "NOR"
  },
  {
    "iata": "SVO",
    "timezone": "Europe/Moscow",
    "country": "Russia",
    "state": "Moscow-Oblast",
    "city": "Moscow",
    "latitude": 55.97259903,
    "longitude": 37.41460037,
    "c2": "RO",
    "c3": "ROU"
  },
  {
    "iata": "SVX",
    "timezone": "Asia/Yekaterinburg",
    "country": "Russia",
    "state": "Sverdlovsk",
    "city": "Yekaterinburg",
    "latitude": 56.74309921,
    "longitude": 60.80270004,
    "c2": "RO",
    "c3": "ROU"
  },